[{"name": "\u4e30\u53f0\u533a \u5927\u4ef6\u8def\u4e0e\u5927\u7aa6\u8def\u652f\u8def\u4ea4\u53e3\u5357 \u5357\u5411\u5317\u200b", "aa": "6",  "Longitude": 116.060457, "Latitude": 39.722492}, {"name": "\u901a\u5dde\u533a \u8fd0\u6cb3\u4e1c\u5927\u8857\u4e0e\u901a\u8fd0\u8def\u4ea4\u53e3 \u65b9\u5411\u5f85\u786e\u8ba4\u200b", "aa": "2",  "Longitude": 116.710182, "Latitude": 39.902251}, {"name": "\u987a\u4e49\u533a \u4eac\u6c88\u8def\u4e0e\u987a\u4e8e\u8def\u4ea4\u53e3 \u5317\u5411\u5357", "aa": "2",  "Longitude": 116.579509, "Latitude": 40.12792}, {"name": "\u987a\u4e49\u533a \u4eac\u6c88\u8def\u4e0e\u987a\u4e8e\u8def\u4ea4\u53e3 \u5357\u5411\u5317", "aa": "2",  "Longitude": 116.578993, "Latitude": 40.127338}, {"name": "\u5f00\u53d1\u533a \u79d1\u521b\u5341\u4e03\u8857\u4e0e\u7ecf\u6d77\u56db\u8def\u4ea4\u53e3 \u4e1c\u5411\u897f\u200b", "aa": "2",  "Longitude": 116.56704, "Latitude": 39.773027}, {"name": "\u9996\u90fd\u673a\u573a \u56db\u7eac\u4e8c\u7ecf\u8def\u53e3 \u897f\u5411\u4e1c\u200b", "aa": "2",  "Longitude": 116.614734, "Latitude": 40.043565}, {"name": "\u5927\u5174\u533a \u4e94\u73af\u8def\u4e0a\u5357\u4e94\u73af\u65e7\u5bab\u5165\u53e3 \u5357\u5411\u5317\u200b\uff08\u4f4d\u7f6e\u5f85\u786e\u8ba4\uff09", "aa": "2",  "Longitude": 116.434481, "Latitude": 39.788492}, {"name": "\u6d77\u6dc0\u533a \u4e2d\u5173\u6751\u5317\u5927\u8857\u5706\u660e\u56ed\u4e1c\u8def\u516c\u4ea4\u7ad9 \u5317\u5411\u5357\u200b", "aa": "2",  "Longitude": 116.314979, "Latitude": 40.00423}, {"name": "\u4e30\u53f0\u533a \u5357\u56db\u73af\u8349\u6865\u4e1c\u8def\u5317\u9f99\u95e8 \u65b9\u5411\u5f85\u786e\u8ba4", "aa": "2",  "Longitude": 116.35907, "Latitude": 39.834783}, {"name": "\u6d77\u6dc0\u533a \u95f5\u5e84\u8def\u897f\u53e3 \u4e1c\u5411\u897f", "aa": "2",  "Longitude": 116.207991, "Latitude": 39.973152}, {"name": "\u671d\u9633\u533a \u6210\u5bff\u5bfa\u8def\u5357\u53e3 \u5317\u5411\u5357", "aa": "2",  "Longitude": 116.447181, "Latitude": 39.833188}, {"name": "\u671d\u9633\u533a \u5e7f\u987a\u5317\u5927\u8857\u6cb3\u836b\u4e2d\u8def\u53e3 \u65b9\u5411\u5f85\u786e\u8ba4\u200b", "aa": "2",  "Longitude": 116.467638, "Latitude": 40.004977}, {"name": "\u660c\u5e73\u533a \u4e1c\u73af\u8def\u4e0e\u5e9c\u5b66\u8def\u4ea4\u53e3 \u897f\u5411\u4e1c\u3010\u516d\u73af\u5916\u3011\u200b", "aa": "6",  "Longitude": 116.239473, "Latitude": 40.22075}, {"name": "\u671d\u9633\u533a \u5357\u4e09\u91cc\u5c6f\u8def\u53e3 \u4e1c\u5411\u897f2", "aa": "2",  "Longitude": 116.454841, "Latitude": 39.923446}, {"name": "\u897f\u57ce\u533a \u4e09\u91cc\u6cb3\u4e1c\u8def\u4e0e\u6708\u575b\u5357\u8857\u4ea4\u53e3 \u5317\u5411\u5357\u200b", "aa": "2",  "Longitude": 116.345051, "Latitude": 39.914231}, {"name": "\u6d77\u6dc0\u533a \u519c\u5927\u5357\u8def\u4e1c\u53e3 \u4e1c\u5411\u897f\u200b", "aa": "2",  "Longitude": 116.310051, "Latitude": 40.025973}, {"name": "\u660c\u5e73\u533a \u6000\u660c\u8def\u4e0e\u5927\u8f9b\u5cf0\u6751\u6865\u897f \u897f\u5411\u4e1c\u3010\u516d\u73af\u5916\u3011", "aa": "6",  "Longitude": 116.346057, "Latitude": 40.207531}, {"name": "\u5ef6\u5e86\u533a \u5927\u6986\u6811\u8def\u53e3\u5317 \u5317\u5411\u5357\u3010\u516d\u73af\u5916\u3011", "aa": "6",  "Longitude": 116.021987, "Latitude": 40.441097}, {"name": "\u5ef6\u5e86\u533a \u7389\u7687\u9601\u5927\u8857\u4e0e\u683c\u5170\u8def\u4ea4\u53e3\u5357 \u5357\u5411\u5317\u200b", "aa": "2",  "Longitude": 115.968861, "Latitude": 40.46728}, {"name": "\u4e1c\u57ce\u533a \u4f53\u80b2\u9986\u897f\u8def\u5357\u53e3\u5317 \u5317\u5411\u5357\u200b", "aa": "2",  "Longitude": 116.424981, "Latitude": 39.881724}, {"name": "\u671d\u9633\u533a \u4e94\u73af\u8def\u5916\u73af\u4e1c\u575d\u51fa\u53e3 \u5357\u5411\u5317\u200b", "aa": "2",  "Longitude": 116.530763, "Latitude": 39.95568}, {"name": "\u671d\u9633\u533a \u4eac\u627f\u9ad8\u901f13.4\u516c\u91cc \u5317\u5411\u5357\u200b", "aa": "2",  "Longitude": 116.481287, "Latitude": 40.086736}, {"name": "\u6d77\u6dc0\u533a \u4e0a\u9a6c\u8def\u53e3 \u4e1c\u5411\u897f\u200b", "aa": "2",  "Longitude": 116.307261, "Latitude": 40.035493}, {"name": "\u6d77\u6dc0\u533a \u5de8\u5c71\u8def\u53e3 \u4e1c\u5411\u897f\u200b", "aa": "2",  "Longitude": 116.229439, "Latitude": 39.954871}, {"name": "\u4e30\u53f0\u533a \u56ed\u535a\u5927\u9053\u4e0e\u6865\u897f\u8857\u4ea4\u53e3 \u5357\u5411\u5317\u200b", "aa": "2",  "Longitude": 116.208999, "Latitude": 39.847364}, {"name": "\u987a\u4e49\u57ce\u533a \u8d22\u653f\u5c40\u897f\u4fa7\u8def\u4e0e\u7ad9\u524d\u897f\u8857\u4ea4\u53e3 \u5357\u5411\u5317\u3010\u987a\u4e49\u57ce\u533a\u9ad8\u5cf0\u671f+\u516d\u73af\u5916\u3011\u200b", "aa": "1",  "Longitude": 116.648608, "Latitude": 40.125617}, {"name": "\u6d77\u6dc0\u533a \u4e07\u6cc9\u6cb3\u6865 \u4e1c\u5411\u897f \uff08\u56db\u73af\u4e3b\u8def\uff09\u200b", "aa": "2",  "Longitude": 116.300296, "Latitude": 39.985055}, {"name": "\u987a\u4e49\u533a \u9f99\u5858\u8def\u4e0e\u53f3\u5824\u8def\u4ea4\u53e3\u897f \u897f\u5411\u4e1c\u3010\u516d\u73af\u5916\u3011", "aa": "6",  "Longitude": 116.737988, "Latitude": 40.064062}, {"name": "\u623f\u5c71\u533a \u960e\u4e2d\u8def\u4e0e\u516b\u53f7\u8def\u4ea4\u53e3\u4e1c \u4e1c\u5411\u897f\u3010\u516d\u73af\u5916\u3011", "aa": "6",  "Longitude": 116.072904, "Latitude": 39.731986}, {"name": "\u623f\u5c71\u533a \u7d2b\u7801\u8def\u4e0e\u767e\u5408\u8def\u4ea4\u53e3 \u5317\u5411\u5357\u3010\u516d\u73af\u5916\u3011", "aa": "6",  "Longitude": 116.082247, "Latitude": 39.713976}, {"name": "\u623f\u5c71\u533a \u4eac\u6df1\u8def\u4e0e\u826f\u5e38\u8def\u4ea4\u53e3 \u897f\u5411\u4e1c\u3010\u516d\u73af\u5916\u3011\u200b", "aa": "6",  "Longitude": 116.146167, "Latitude": 39.673409}, {"name": "\u6d77\u6dc0\u533a \u674f\u77f3\u53e3\u6865 \u5317\u5411\u5357\u200b", "aa": "2",  "Longitude": 116.213138, "Latitude": 39.956475}, {"name": "\u671d\u9633\u533a \u5efa\u56fd\u8def\u56db\u60e0\u4e1c\u7ad9 \u4e1c\u5411\u897f\u200b", "aa": "2",  "Longitude": 116.515794, "Latitude": 39.908026}, {"name": "\u6d77\u6dc0\u533a \u4e0a\u9a6c\u8def\u53e3 \u5357\u5411\u5317\u200b", "aa": "2",  "Longitude": 116.307048, "Latitude": 40.03501}, {"name": "\u6d77\u6dc0\u533a \u95f5\u5e84\u8def\u897f\u53e3 \u5357\u5411\u5317\u200b", "aa": "2",  "Longitude": 116.207663, "Latitude": 39.972798}, {"name": "\u6d77\u6dc0\u533a \u53a2\u9ec4\u65d7\u4e1c\u8def\u5317\u53e3 \u5357\u5411\u5317\u200b", "aa": "2",  "Longitude": 116.294949, "Latitude": 40.033594}, {"name": "\u6d77\u6dc0\u533a \u9759\u6dd1\u82d1\u8def\u53e3 \u5317\u5411\u5357\u200b", "aa": "2",  "Longitude": 116.348922, "Latitude": 40.001164}, {"name": "\u671d\u9633\u533a \u5927\u5c6f\u5317\u8def\u4e0e\u5317\u8fb0\u4e1c\u8def\u4ea4\u53e3 \u200b", "aa": "2",  "Longitude": 116.40075, "Latitude": 40.005075}, {"name": "\u660c\u5e73\u533a \u56de\u660c\u8def\u5317\u516d\u73af\u5357\u53e3 \u5357\u5411\u5317\u200b\uff08\u516d\u73af\u531d\u9053\u4ee5\u5357\uff09", "aa": "2",  "Longitude": 116.28935, "Latitude": 40.175051}, {"name": "\u6d77\u6dc0\u533a \u7af9\u56ed\u4e2d\u8857\u5317\u53e3 \u4e1c\u5411\u897f\u200b", "aa": "2",  "Longitude": 116.282409, "Latitude": 40.033902}, {"name": "\u6d77\u6dc0\u533a \u9999\u5c71\u5357\u8def\u4e0e\u798f\u7530\u5bfa\u897f\u8857\u4ea4\u53e3 \u897f\u5411\u4e1c\u200b", "aa": "2",  "Longitude": 116.203164, "Latitude": 39.944036}, {"name": "\u671d\u9633\u533a \u6f58\u5bb6\u56ed\u8def\u4e0e\u534e\u5a01\u8def\u4ea4\u53e3 \u5317\u5411\u5357\u200b", "aa": "2",  "Longitude": 116.456008, "Latitude": 39.876348}, {"name": "\u5f00\u53d1\u533a \u79d1\u521b\u5341\u4e8c\u8857\u4e0e\u7ecf\u60e0\u4e1c\u8def\u4ea4\u53e3 \u897f\u5411\u4e1c", "aa": "2",  "Longitude": 116.576162, "Latitude": 39.791261}, {"name": "\u5e73\u8c37\u533a \u5e73\u8c37\u5357\u8857\u897f\u53e3\u5357 \u5357\u5411\u5317 \u3010\u516d\u73af\u5916\u3011", "aa": "6",  "Longitude": 117.111281, "Latitude": 40.153472}, {"name": "\u623f\u5c71\u533a \u5218\u590f\u8def\u4e0e\u77f3\u590f\u8def\u4ea4\u53e3\u5317 \u5317\u5411\u5357\u200b\u3010\u516d\u73af\u5916\u3011", "aa": "6",  "Longitude": 116.032742, "Latitude": 39.653733}, {"name": "\u4e30\u53f0\u533a \u77f3\u69b4\u5e84\u8def\u77f3\u69b4\u5e84\u5317\u91cc\u5357\u4fa7\u8def\u884c\u4eba\u4e1c \u4e1c\u5411\u897f\u200b", "aa": "2",  "Longitude": 116.416737, "Latitude": 39.84595}, {"name": "\u623f\u5c71\u533a \u51ef\u65cb\u5927\u8857\u897f\u6f5e\u5927\u8857\u5357\u53e3\u5357 \u5357\u5411\u5317\u200b\uff08\u5357\u5317\u5747\u80fd\u62cd\u5230\uff09", "aa": "2",  "Longitude": 116.136575, "Latitude": 39.720202}, {"name": "\u671d\u9633\u533a \u897f\u5927\u671b\u8def\u4e0e\u767e\u5b50\u6e7e\u5357\u4e8c\u8def\u4ea4\u53e3\u4e1c\u4fa7 \u4e1c\u5411\u897f\u200b", "aa": "2",  "Longitude": 116.478055, "Latitude": 39.897121}, {"name": "\u6d77\u6dc0\u533a \u519c\u5927\u5357\u8def\u4e1c\u53e3 \u897f\u5411\u4e1c", "aa": "2",  "Longitude": 116.30938, "Latitude": 40.025836}, {"name": "\u6000\u67d4\u533a \u6768\u96c1\u4e1c\u4e8c\u8def\u4e0e\u4e2d\u9ad8\u8def\u4ea4\u53e3\u897f \u897f\u5411\u4e1c\u3010\u516d\u73af\u5916\u3011", "aa": "6",  "Longitude": 116.69359, "Latitude": 40.347605}, {"name": "\u660c\u5e73\u533a \u5357\u96c1\u8def\u4e0e\u674e\u6d41\u8def\u4ea4\u53e3\u4e1c \u4e1c\u5411\u897f\u3010\u516d\u73af\u5916\u3011", "aa": "6",  "Longitude": 116.100732, "Latitude": 40.213112}, {"name": "\u987a\u4e49\u533a \u901a\u987a\u8def\u4e0e\u77f3\u56ed\u5927\u8857\u4ea4\u53e3\u4e1c \u4e1c\u5411\u897f\u3010\u516d\u73af\u5916\u3011\u200b", "aa": "6",  "Longitude": 116.659215, "Latitude": 40.112139}, {"name": "\u6d77\u6dc0\u533a \u6587\u6167\u8def\u4e0e\u6587\u6167\u56ed\u897f\u8def\u5357 \u5317\u5411\u5357\u200b", "aa": "2",  "Longitude": 116.358283, "Latitude": 39.952059}, {"name": "\u897f\u57ce\u533a \u53cc\u65d7\u6746\u897f\u8def\u5357\u53e3\u4e1c \u4e1c\u5411\u897f\u200b", "aa": "2",  "Longitude": 116.385612, "Latitude": 39.962967}, {"name": "\u5ef6\u5e86\u533a \u56e2\u7ed3\u8def\u4e0e110\u56fd\u9053\u4ea4\u53e3\u5317 \u5317\u5411\u5357\u200b\u3010\u516d\u73af\u5916\u3011", "aa": "6",  "Longitude": 115.989114, "Latitude": 40.490305}, {"name": "\u671d\u9633\u533a \u4e1c\u98ce\u6865\u5357\u8fc7\u8857\u5929\u6865 \u5357\u5411\u5317\u200b \u8f85\u8def", "aa": "2",  "Longitude": 116.490174, "Latitude": 39.94969}, {"name": "\u5f00\u53d1\u533a \u79d1\u521b\u5341\u4e03\u8857\u4e0e\u7ecf\u6d77\u56db\u8def\u4ea4\u53e3 \u897f\u5411\u4e1c\u200b", "aa": "2",  "Longitude": 116.566341, "Latitude": 39.772905}, {"name": "\u660c\u5e73\u533a \u5d14\u5317\u8def\u4e0e\u5185\u73af\u4e1c\u8def\u4ea4\u53e3\u5357 \u5357\u5411\u5317\u3010\u516d\u73af\u5916\u3011\u200b", "aa": "6",  "Longitude": 116.288063, "Latitude": 40.227494}, {"name": "\u6d77\u6dc0\u533a \u7530\u6751\u8def48\u53f7\u9662\u5317\u95e8\u897f \u897f\u5411\u4e1c\u200b", "aa": "2",  "Longitude": 116.255905, "Latitude": 39.92938}, {"name": "\u5f00\u53d1\u533a \u79d1\u521b\u5341\u4e03\u8857\u4e0e\u7ecf\u6d77\u4e09\u8def\u4ea4\u53e3 \u897f\u5411\u4e1c", "aa": "2",  "Longitude": 116.562666, "Latitude": 39.772744}, {"name": "\u5f00\u53d1\u533a \u79d1\u521b\u5341\u4e03\u8857\u4e0e\u7ecf\u6d77\u4e09\u8def\u4ea4\u53e3 \u4e1c\u5411\u897f", "aa": "2",  "Longitude": 116.563814, "Latitude": 39.772875}, {"name": "\u660c\u5e73\u533a \u5d14\u5317\u8def\u4e0e\u4f55\u8425\u8def\u4ea4\u53e3\u5357 \u5357\u5411\u5317\u3010\u516d\u73af\u5916\u3011\u200b", "aa": "6",  "Longitude": 116.29386, "Latitude": 40.226192}, {"name": "\u5f00\u53d1\u533a \u5b8f\u798f\u897f\u8def\u4e0e\u5b9c\u5bb6\u5317\u95e8\u4ea4\u53e3 \u4e1c\u5411\u897f\u200b", "aa": "2",  "Longitude": 116.323891, "Latitude": 39.791019}, {"name": "\u5ef6\u5e86\u533a \u200b\u6c38\u5143\u8857\u8def\u53e3 \u4e1c\u5317\u5411\u897f\u5357\u3010\u516d\u73af\u5916\u3011\u200b", "aa": "6",  "Longitude": 116.169133, "Latitude": 40.533146}, {"name": "\u4e30\u53f0\u533a \u5357\u5927\u7ea2\u95e8\u8def \u4e1c\u5411\u897f\u200b", "aa": "2",  "Longitude": 116.416214, "Latitude": 39.805429}, {"name": "\u5f00\u53d1\u533a \u7ecf\u60e0\u4e1c\u8def\u79d1\u8c37\u56db\u8857 \u5317\u5411\u5357\u200b", "aa": "2",  "Longitude": 116.586009, "Latitude": 39.781218}, {"name": "\u987a\u4e49\u533a \u987a\u5eb7\u8def\u4e0e\u6c11\u5bcc\u8857\u4ea4\u53e3 \u5357\u5411\u5317\u200b\u3010\u516d\u73af\u5916\u3011", "aa": "6",  "Longitude": 116.674323, "Latitude": 40.113519}, {"name": "\u5927\u5174\u533a \u540c\u534e\u6865\u4e3b\u8def\u5916\u73af \u897f\u5411\u4e1c", "aa": "2",  "Longitude": 116.361117, "Latitude": 39.777638}, {"name": "\u671d\u9633\u533a \u5efa\u534e\u8def\u53e3\u897f \u897f\u5411\u4e1c\u200b\u3010\u957f\u5b89\u8857\u3011", "aa": "2",  "Longitude": 116.443455, "Latitude": 39.908441}, {"name": "\u9996\u90fd\u673a\u573a \u5929\u7eac\u4e8c\u8857\u4e0e\u5929\u67f1\u8def\u4ea4\u53e3 \u897f\u5411\u4e1c\u200b\uff08\u5f85\u786e\u5b9a\uff09", "aa": "4",  "Longitude": 116.563793, "Latitude": 40.080633}, {"name": "\u671d\u9633\u533a \u5b89\u7acb\u8def\u4ef0\u5c71\u8def\u897f\u53e3\u5317 \u5317\u5411\u5357 \u8f85\u8def\u200b", "aa": "2",  "Longitude": 116.40922, "Latitude": 40.027198}, {"name": "\u5bc6\u4e91\u533a \u77f3\u4f5b\u8def\u53e3\u5357 \u5357\u5411\u5317\u3010\u516d\u73af\u5916\u3011\u200b", "aa": "6",  "Longitude": 116.876106, "Latitude": 40.601301}, {"name": "\u671d\u9633\u533a \u4e94\u73af\u8def\u5916\u73af\u5e7f\u987a\u6865\u4e1c\u51fa\u53e3 \u4e1c\u5411\u897f\u200b", "aa": "2",  "Longitude": 116.473605, "Latitude": 40.015288}, {"name": "\u671d\u9633\u533a \u56fd\u5bb6\u4f53\u80b2\u573a\u897f\u95e8 \u897f\u5411\u4e1c\u200b", "aa": "2",  "Longitude": 116.386463, "Latitude": 39.997817}, {"name": "\u671d\u9633\u533a \u5c0f\u6b66\u57fa\u8fc7\u8857\u5929\u6865 \u5317\u5411\u5357 \u8f85\u8def", "aa": "2",  "Longitude": 116.486948, "Latitude": 39.861832}, {"name": "\u5e73\u8c37\u533a \u4e1c\u6a0a\u5404\u5e84\u5c0f\u5b66\u8def\u53e3\u897f \u897f\u5411\u4e1c\u3010\u516d\u73af\u5916\u3011", "aa": "2",  "Longitude": 116.978199, "Latitude": 40.190704}, {"name": "\u5e73\u8c37\u533a \u6a0a\u5404\u5e84\u8def\u4e0e\u6768\u674f\u8def\u4ea4\u53e3\u5357 \u5357\u5411\u5317\u3010\u516d\u73af\u5916\u3011", "aa": "6",  "Longitude": 116.985751, "Latitude": 40.189295}, {"name": "\u660c\u5e73\u533a \u9f99\u6c34\u8def\u4e0e\u632f\u5174\u8def\u4ea4\u6c47\u5904\u897f \u897f\u5411\u4e1c\u3010\u516d\u73af\u5916\u3011\u200b", "aa": "6",  "Longitude": 116.25813, "Latitude": 40.207533}, {"name": "\u4e1c\u57ce\u533a \u200b\u6c38\u5b9a\u95e8\u5185\u5927\u8857\u8def\u4e1c\u4fa7 \u5357\u5411\u5317\u3010\u4e8c\u73af\u91cc\u3011\u200b", "aa": "2",  "Longitude": 116.399139, "Latitude": 39.880584}, {"name": "\u5f00\u53d1\u533a \u79d1\u8c37\u4e09\u8857\u4e0e\u7ecf\u60e0\u897f\u8def\u4ea4\u53e3 \u5317\u5411\u5357\u200b", "aa": "2",  "Longitude": 116.581672, "Latitude": 39.782604}, {"name": "\u671d\u9633\u533a \u5341\u516b\u91cc\u5e97\u5317\u6865\u897f \u4e1c\u897f\u53cc\u5411\u200b", "aa": "2",  "Longitude": 116.480083, "Latitude": 39.852956}, {"name": "\u671d\u9633\u533a \u59da\u5bb6\u56ed\u5317\u4e8c\u8def\u4e0e\u59da\u5bb6\u56ed\u4e2d\u8def\u4e1c \u4e1c\u5411\u897f\u200b", "aa": "2",  "Longitude": 116.520257, "Latitude": 39.949806}, {"name": "\u5f00\u53d1\u533a \u6cf0\u6cb3\u4e09\u8857\u4e0e\u535a\u5174\u4e00\u8def\u4ea4\u53e3 \u5317\u5411\u5357\u200b", "aa": "2",  "Longitude": 116.526618, "Latitude": 39.748791}, {"name": "\u5f00\u53d1\u533a \u79d1\u8c37\u56db\u8857\u7ecf\u60e0\u897f\u8def\u4ea4\u53e3 \u4e1c\u5411\u897f\u200b", "aa": "2",  "Longitude": 116.585168, "Latitude": 39.780417}, {"name": "\u6d77\u6dc0\u533a \u84dd\u975b\u5382\u5317\u8def\u706b\u5668\u8425\u6865\u5357\u5929\u6865 \u5357\u5411\u5317\u200b", "aa": "2",  "Longitude": 116.288183, "Latitude": 39.969637}, {"name": "\u5e73\u8c37\u533a \u5bc6\u4e09\u8def\u4e0e\u5927\u6768\u8def\u4ea4\u53e3\u5317 \u5317\u5411\u5357\u200b\u3010\u516d\u73af\u5916\u3011", "aa": "6",  "Longitude": 117.021753, "Latitude": 40.149709}, {"name": "\u660c\u5e73\u533a \u9ad8\u6559\u56ed\u5357\u4e09\u8857\u4e0e\u5317\u6c99\u6cb3\u4e2d\u8def\u8def\u53e3 \u5357\u5411\u5317", "aa": "2",  "Longitude": 116.27809, "Latitude": 40.150715}, {"name": "\u95e8\u5934\u6c9f\u533a \u9ad8\u5bb6\u56ed\u8def\u6843\u56ed\u8def\u4ea4\u53e3\u4e1c \u4e1c\u5411\u897f\u3010\u516d\u73af\u5916\u3011\u200b", "aa": "6",  "Longitude": 116.106159, "Latitude": 39.928131}, {"name": "\u671d\u9633\u533a \u4e1c\u4e09\u73af\u8f85\u8def\u4e0e\u9704\u4e91\u8def\u4ea4\u53e3\u200b \u4e1c\u5411\u897f", "aa": "2",  "Longitude": 116.460158, "Latitude": 39.954325}, {"name": "\u660c\u5e73\u533a \u6c34\u5357\u8def\u4e0e\u5b8f\u5964\u8def\u4ea4\u53e3 \u4e1c\u5411\u897f\u3010\u516d\u73af\u5916\u3011", "aa": "6",  "Longitude": 116.202506, "Latitude": 40.200831}, {"name": "\u660c\u5e73\u533a \u660c\u91d1\u8def\u4e0e\u677f\u897f\u8def\u4ea4\u53e3\u4e1c \u4e1c\u5411\u897f\u3010\u516d\u73af\u5916\u3011\u200b", "aa": "6",  "Longitude": 116.518129, "Latitude": 40.210247}, {"name": "\u671d\u9633\u533a \u5b89\u5bb6\u697c\u8def\u4e0e\u4e1c\u65b9\u4e1c\u8def\u4ea4\u53e3 \u5317\u5411\u5357\u200b", "aa": "2",  "Longitude": 116.464478, "Latitude": 39.954049}, {"name": "\u660c\u5e73\u533a \u9ad8\u6559\u56ed\u5357\u4e09\u8857\u4e0e\u5317\u6c99\u6cb3\u4e2d\u8def\u8def\u53e3\u5317 \u5317\u5411\u5357\u200b", "aa": "2",  "Longitude": 116.277576, "Latitude": 40.1515}, {"name": "\u671d\u9633\u533a \u6a31\u82b1\u56ed\u897f\u8857\u4e0e\u5065\u5b89\u4e1c\u8def\u4ea4\u53e3 \u5317\u5411\u5357 \u4e3b\u8def+\u8f85\u8def\u200b", "aa": "2",  "Longitude": 116.417449, "Latitude": 39.977456}, {"name": "\u4e30\u53f0\u533a \u5b9a\u5b89\u8def\u4e0e\u5218\u5bb6\u7a91\u8def\u4ea4\u53e3 \u5357\u5411\u5317\u200b", "aa": "2",  "Longitude": 116.413932, "Latitude": 39.861782}, {"name": "\u901a\u5dde\u533a \u5b8f\u5b89\u8857\u4e0e\u89c8\u79c0\u4e1c\u8def\u4ea4\u53e3 \u897f\u5411\u4e1c", "aa": "2",  "Longitude": 116.72537, "Latitude": 39.907131}, {"name": "\u5bc6\u4e91\u533a \u987a\u671d\u8857\u5723\u6c34\u6cc9\u8def\u4ea4\u53e3\u5317 \u5317\u5411\u5357\u3010\u516d\u73af\u5916\u3011\u200b", "aa": "6",  "Longitude": 116.847554, "Latitude": 40.348937}, {"name": "\u660c\u5e73\u533a \u4e0a\u5e84\u8def\u4e0e\u5a04\u571f\u8def\u53e3\u4e1c \u4e1c\u5411\u897f\u200b", "aa": "2",  "Longitude": 116.194913, "Latitude": 40.162147}, {"name": "\u4e1c\u57ce\u533a \u4e1c\u76f4\u95e8\u5916\u5927\u8857\u4e0e\u4e09\u91cc\u5c6f\u8def\u4ea4\u53e3 \u897f\u5411\u4e1c\u200b", "aa": "2",  "Longitude": 116.454552, "Latitude": 39.941025}, {"name": "\u897f\u57ce\u533a \u8336\u9a6c\u5357\u8857\u4e0e\u7ea2\u83b2\u897f\u8def\u4ea4\u53e3\u5357 \u5357\u5411\u5317\u200b", "aa": "2",  "Longitude": 116.332373, "Latitude": 39.877981}, {"name": "\u987a\u4e49\u533a \u987a\u4e49\u5730\u7a0e\u5c40\u8def\u53e3 \u5317\u5411\u5357\u3010\u516d\u73af\u5916+\u987a\u4e49\u57ce\u533a\u9ad8\u5cf0\u671f\u3011", "aa": "1",  "Longitude": 116.651016, "Latitude": 40.117918}, {"name": "\u987a\u4e49\u533a \u987a\u4e49\u5730\u7a0e\u5c40\u8def\u53e3 \u5357\u5411\u5317\u3010\u516d\u73af\u5916\u3011", "aa": "6",  "Longitude": 116.651131, "Latitude": 40.116745}, {"name": "\u987a\u4e49\u533a \u987a\u5e73\u8def\u4e0e\u987a\u5eb7\u8def\u4ea4\u53e3 \u897f\u5411\u4e1c\u200b\u3010\u516d\u73af\u5916\u3011", "aa": "6",  "Longitude": 116.67368, "Latitude": 40.115649}, {"name": "\u660c\u5e73\u533a \u5b89\u56db\u8def\u4e0e\u987a\u6c99\u8def\u4ea4\u53e3 \u5357\u5411\u5317\u3010\u516d\u73af\u5916\u3011\u200b", "aa": "6",  "Longitude": 116.40747, "Latitude": 40.176633}, {"name": "\u901a\u5dde\u533a \u4e34\u955c\u8def\u4e0e\u901a\u6e90\u8857\u4ea4\u53e3 \u65b9\u5411\u5f85\u786e\u8ba4\u200b", "aa": "2",  "Longitude": 116.718096, "Latitude": 39.904915}, {"name": "\u901a\u5dde\u533a \u5b8f\u5b89\u8857\u4e0e\u6e05\u98ce\u8def\u4ea4\u53e3  \u5357\u5411\u5317", "aa": "2",  "Longitude": 116.730099, "Latitude": 39.906907}, {"name": "\u897f\u57ce\u533a \u6708\u575b\u5317\u8857\u897f\u4e8c\u73af\u8f85\u8def\u8def\u53e3\u5317 \u5317\u5411\u5357\u200b", "aa": "2",  "Longitude": 116.356222, "Latitude": 39.918955}, {"name": "\u95e8\u5934\u6c9f \u77f3\u56ed\u4e2d\u8def\u4e1c\u53e3 \u5357\u5411\u5317\u3010\u516d\u73af\u5916\u3011\u200b", "aa": "6",  "Longitude": 116.106946, "Latitude": 39.887138}, {"name": "\u5f00\u53d1\u533a \u7ecf\u6d77\u516d\u8def\u4e0e\u5d14\u5bb6\u7a91\u5317\u8857 \u897f\u5411\u4e1c\u200b", "aa": "2",  "Longitude": 116.56985, "Latitude": 39.789483}, {"name": "\u6d77\u6dc0\u533a \u4e2d\u5173\u6751\u5317\u5927\u8857\u6e05\u534e\u9644\u4e2d\u516c\u4ea4\u7ad9 \u5317\u5411\u5357\u200b", "aa": "2",  "Longitude": 116.318689, "Latitude": 40.009342}, {"name": "\u671d\u9633\u533a \u8096\u6751\u6865\u8fc7\u8857\u5929\u6865 \u897f\u5411\u4e1c \u8f85\u8def\u200b", "aa": "2",  "Longitude": 116.453743, "Latitude": 39.832457}, {"name": "\u671d\u9633\u533a \u4e94\u73af\u8def\u4e03\u68f5\u6811\u6865\u5317 \u5357\u5317\u53cc\u5411", "aa": "2",  "Longitude": 116.527202, "Latitude": 39.963369}, {"name": "\u671d\u9633\u533a \u671d\u9633\u516c\u56ed\u5357\u8def\u4e0e\u751c\u6c34\u56ed\u4e1c\u8857\u4ea4\u53e3 \u4e1c\u5411\u897f \u8f85\u8def\u200b", "aa": "2",  "Longitude": 116.485092, "Latitude": 39.93392}, {"name": "\u901a\u5dde\u533a \u8fbe\u6d4e\u8857\u4e0e\u6e05\u98ce\u8def\u4ea4\u53e3 \u65b9\u5411\u5f85\u786e\u8ba4\u200b", "aa": "2",  "Longitude": 116.730143, "Latitude": 39.905242}, {"name": "\u901a\u5dde\u533a \u6f5e\u9633\u5927\u8857\u4e0e\u7545\u548c\u4e1c\u8def\u4ea4\u53e3 \u65b9\u5411\u5f85\u786e\u8ba4\u200b", "aa": "2",  "Longitude": 116.745292, "Latitude": 39.891672}, {"name": "\u77f3\u666f\u5c71\u533a \u5317\u8f9b\u5b89\u8def\u4e0e\u53e4\u57ce\u897f\u8def\u4ea4\u53e3 \u5317\u5411\u5357 \u4e3b\u8def\u200b", "aa": "2",  "Longitude": 116.167087, "Latitude": 39.914209}, {"name": "\u671d\u9633\u533a \u4e94\u73af\u8def\u5185\u73af\u4e1c\u575d\u5165\u53e3\u200b \u5317\u5411\u5357", "aa": "2",  "Longitude": 116.530576, "Latitude": 39.955134}, {"name": "\u200b\u4e30\u53f0\u533a G4\u8f85\u8def\u51fa\u4eac\u5f20\u4eea\u6751\u8def\u51fa\u53e3 \u4e1c\u5411\u897f", "aa": "2",  "Longitude": 116.242173, "Latitude": 39.859781}, {"name": "\u660c\u5e73\u533a \u5d14\u963f\u8def\u4e0e\u68c9\u8f9b\u8def\u8def\u53e3\u5357150\u7c73 \u5357\u5411\u5317\u3010\u516d\u73af\u5916\u3011\u200b", "aa": "6",  "Longitude": 116.351401, "Latitude": 40.199825}, {"name": "\u5927\u5174\u533a \u65e7\u5bab\u4e1c\u897f\u5927\u8857\u4e0e\u4e91\u9f99\u5bb6\u56ed\u897f \u897f\u5411\u4e1c\u200b", "aa": "2",  "Longitude": 116.436117, "Latitude": 39.804504}, {"name": "\u660c\u5e73\u533a \u56db\u573a\u8def\u4e0e\u79e6\u4e0a\u8def\u4ea4\u53e3 \u5357\u5411\u5317\u3010\u516d\u73af\u5916\u3011\u200b", "aa": "6",  "Longitude": 116.388087, "Latitude": 40.161009}, {"name": "\u5927\u5174\u533a \u4e94\u73af\u8def\u4e0a\u5357\u4e94\u73af\u5fb7\u8d24\u8def\u51fa\u53e3 \u897f\u5411\u4e1c\u200b", "aa": "2",  "Longitude": 116.42985, "Latitude": 39.785153}, {"name": "\u4e30\u53f0\u533a \u5357\u5927\u7ea2\u95e8\u8def\u4e07\u6e90\u8def\u53e3\u5317 \u5317\u5411\u5357", "aa": "2",  "Longitude": 116.416994, "Latitude": 39.804913}, {"name": "\u5f00\u53d1\u533a \u79d1\u8c37\u4e09\u8857\u4e0e\u7ecf\u60e0\u897f\u8def\u4ea4\u53e3 \u4e1c\u5411\u897f\u200b", "aa": "2",  "Longitude": 116.582297, "Latitude": 39.782655}, {"name": "\u5f00\u53d1\u533a \u79d1\u521b\u5341\u4e00\u8857\u4e0e\u7ecf\u6d77\u4e94\u8def\u4ea4\u53e3 \u4e1c\u5411\u897f\u200b", "aa": "2",  "Longitude": 116.564517, "Latitude": 39.789519}, {"name": "\u671d\u9633\u533a \u56db\u73af\u4e3b\u8def\u5b89\u6167\u6865\u4e1c \u4e1c\u5411\u897f\u200b", "aa": "2",  "Longitude": 116.411432, "Latitude": 39.988563}, {"name": "\u671d\u9633\u533a \u5317\u571f\u57ce\u8def\u53e3\u897f \u897f\u5411\u4e1c\u200b", "aa": "2",  "Longitude": 116.392181, "Latitude": 39.976829}, {"name": "\u77f3\u666f\u5c71\u533a \u53cc\u56ed\u8def\u4e2d\u53e3\u4e1c/\u897f/\u5317/\u5357 \u56db\u4e2a\u65b9\u5411", "aa": "2",  "Longitude": 116.191268, "Latitude": 39.936727}, {"name": "\u4e30\u53f0\u533a \u5bcc\u4e30\u6865\u4e1c\u9f99\u95e8\u200b \u897f\u5411\u4e1c", "aa": "2",  "Longitude": 116.289432, "Latitude": 39.836462}, {"name": "\u671d\u9633\u533a \u4e94\u73af\u8def\u5185\u73af\u5c0f\u90ca\u4ead\u6865\u5357\u5165\u53e3 \u5317\u5411\u5357\u200b", "aa": "2",  "Longitude": 116.548178, "Latitude": 39.885725}, {"name": "\u987a\u4e49\u533a \u5929\u5317\u8def\u4e0e\u99a8\u56ed\u4e00\u8def\u4ea4\u53e3 \u897f\u5411\u4e1c\u200b", "aa": "2",  "Longitude": 116.548338, "Latitude": 40.067286}, {"name": "\u901a\u5dde\u533a \u6b66\u5174\u8def\u4e0e\u5218\u6b66\u8def\u4ea4\u53e3\u897f \u897f\u5411\u4e1c\u200b", "aa": "2",  "Longitude": 116.802016, "Latitude": 39.854896}, {"name": "\u897f\u57ce\u533a \u961c\u6210\u95e8\u897f\u7b2c\u4e8c\u5929\u6865 \u897f\u5411\u4e1c\u200b", "aa": "2",  "Longitude": 116.349111, "Latitude": 39.92335}, {"name": "\u77f3\u666f\u5c71\u533a \u52a8\u529b\u8857\u4e0e\u4e94\u4e00\u5267\u573a\u8def\u4ea4\u53c9\u53e3 \u897f\u5411\u4e1c\u200b", "aa": "2",  "Longitude": 116.15236, "Latitude": 39.917777}, {"name": "\u4e1c\u57ce\u533a \u4e1c\u5174\u9686\u8857\u53e3\u897f \u897f\u5411\u4e1c\u200b", "aa": "2",  "Longitude": 116.418165, "Latitude": 39.897137}, {"name": "\u4e30\u53f0\u533a \u6021\u6d77\u82b1\u56ed\u8fc7\u8857\u5929\u6865 \u4e1c\u5411\u897f \u4e3b\u8def\u200b", "aa": "2",  "Longitude": 116.301778, "Latitude": 39.830657}, {"name": "\u77f3\u666f\u5c71\u533a \u5317\u8f9b\u5b89\u8def\u4e0e\u53e4\u57ce\u897f\u8def\u4ea4\u53e3 \u4e3b\u8def\u5357\u5411\u5317", "aa": "2",  "Longitude": 116.167754, "Latitude": 39.913547}, {"name": "\u5f00\u53d1\u533a \u5174\u6d77\u8def\u4e0e\u535a\u5174\u8def\u4ea4\u53e3 \u897f\u5411\u4e1c\u200b", "aa": "2",  "Longitude": 116.505344, "Latitude": 39.750202}, {"name": "\u6d77\u6dc0\u533a \u5357\u6c99\u7a9d\u6865\u5357 \u5357\u5411\u5317 \u8f85\u8def\u200b", "aa": "2",  "Longitude": 116.274316, "Latitude": 39.89364}, {"name": "\u4e30\u53f0\u533a \u6021\u6d77\u82b1\u56ed\u8fc7\u8857\u5929\u6865 \u897f\u5411\u4e1c \u8f85\u8def\u200b", "aa": "2",  "Longitude": 116.301827, "Latitude": 39.830321}, {"name": "\u671d\u9633\u533a \u5317\u4e09\u73af\u8f85\u8def\u4e0e\u6a31\u82b1\u897f\u8857\u4ea4\u53e3 \u4e1c\u5411\u897f\u200b", "aa": "2",  "Longitude": 116.418441, "Latitude": 39.969353}, {"name": "\u671d\u9633\u533a \u4e94\u73af\u8def\u5916\u73af\u4e03\u68f5\u6811\u5165\u53e3 \u5357\u5411\u5317\u200b", "aa": "2",  "Longitude": 116.528262, "Latitude": 39.961396}, {"name": "\u5927\u5174\u533a \u897f\u6bd3\u987a\u6865\u4e3b\u8def\u5185\u73af \u5317\u5411\u5357", "aa": "2",  "Longitude": 116.424212, "Latitude": 39.775438}, {"name": "\u6d77\u6dc0\u533a \u84dd\u975b\u5382\u8def\u897f\u53e3\u4e1c\u9f99\u95e8 \u65b9\u5411\u5f85\u786e\u8ba4\u200b", "aa": "2",  "Longitude": 116.2757, "Latitude": 39.966441}, {"name": "\u5de6\u5b89\u95e8\u5185\u5927\u8857\u5de6\u5b89\u6d66\u56ed\u4e1c\u95e8\u5357 \u5357\u5411\u5317\u200b", "aa": "2",  "Longitude": 116.439654, "Latitude": 39.873949}, {"name": "\u77f3\u666f\u5c71\u533a \u5317\u8f9b\u5b89\u8def\u4e0e\u53e4\u57ce\u897f\u8def\u4ea4\u53e3 \u5317\u5411\u5357 \u8f85\u8def\u200b", "aa": "2",  "Longitude": 116.166978, "Latitude": 39.914098}, {"name": "\u77f3\u666f\u5c71\u533a \u5317\u8f9b\u5b89\u8def\u4e0e\u53e4\u57ce\u897f\u8def\u4ea4\u53e3 \u5357\u5411\u5317 \u8f85\u8def\u200b", "aa": "2",  "Longitude": 116.167911, "Latitude": 39.913618}, {"name": "\u5f00\u53d1\u533a \u51c9\u6c34\u6cb3\u4e8c\u8857\u4e0e\u535a\u5174\u516d\u8def\u4ea4\u53e3 \u4e1c\u5411\u897f\u200b", "aa": "2",  "Longitude": 116.509327, "Latitude": 39.764869}, {"name": "\u6d77\u6dc0\u533a \u4e94\u73af\u8001\u5c71\u6865\u5357\u9f99\u95e8\u200b \u65b9\u5411\u5f85\u786e\u8ba4", "aa": "2",  "Longitude": 116.211025, "Latitude": 39.908231}, {"name": "\u6d77\u6dc0\u533a \u4e94\u73af\u4e3b\u8def\u529f\u5fb7\u5bfa\u6865\u4e0a \u5916\u73af \u4e1c\u5411\u897f\u200b", "aa": "2",  "Longitude": 116.256695, "Latitude": 40.002945}, {"name": "\u6d77\u6dc0\u533a \u9999\u6cc9\u6865\u5317\u7b2c\u4e00\u5929\u6865 \u4e1c\u5411\u897f\u200b", "aa": "2",  "Longitude": 116.228827, "Latitude": 39.996629}, {"name": "\u671d\u9633\u533a \u4e94\u73af\u8def\u5185\u73af\u5c06\u53f0\u4e1c\u8def\u5165\u53e3 \u5317\u5411\u5357 \u200b", "aa": "2",  "Longitude": 116.519725, "Latitude": 39.97556}, {"name": "\u6d77\u6dc0\u533a \u4e94\u73af\u8def\u9999\u6cc9\u73af\u5c9b\u5317\u5165\u53e3 \u5185\u73af \u5357\u5411\u5317\u200b", "aa": "2",  "Longitude": 116.225368, "Latitude": 39.995075}, {"name": "\u5e73\u8c37\u533a \u5e73\u7a0b\u8def\u4e0e\u4e1c\u5bfa\u5cad\u8def\u4ea4\u53c9\u53e3\u5357 \u5357\u5411\u5317[\u516d\u73af\u5916]", "aa": "6",  "Longitude": 117.13784, "Latitude": 40.321551}, {"name": "\u5e73\u8c37\u533a \u5e73\u745e\u8857\u4e0e\u5e73\u8c37\u6e7f\u5730\u516c\u56ed\u8def\u53e3\u4e1c \u4e1c\u5411\u897f[\u516d\u73af\u5916]", "aa": "6",  "Longitude": 117.11152, "Latitude": 40.166292}, {"name": "\u5e73\u8c37\u533a \u56ed\u7530\u8857\u4e0e\u65e7\u57ce\u4e1c\u8857\u4ea4\u53c9\u53e3\u4e1c \u4e1c\u5411\u897f\u3010\u516d\u73af\u5916\u3011", "aa": "6",  "Longitude": 117.132212, "Latitude": 40.136306}, {"name": "\u671d\u9633\u533a \u56db\u73af\u4e3b\u8def\u5c0f\u6b66\u57fa\u6865 \u5357\u5411\u5317\u200b", "aa": "2",  "Longitude": 116.486848, "Latitude": 39.858458}, {"name": "\u6d77\u6dc0\u533a \u7ea2\u5c71\u6865\u4e0a \u4e1c\u5411\u897f", "aa": "2",  "Longitude": 116.268373, "Latitude": 40.004702}, {"name": "\u671d\u9633\u533a \u4e07\u901a\u8def\u4e0e\u53cc\u6865\u4e1c\u8def\u4ea4\u53e3 \u897f\u5411\u4e1c", "aa": "2",  "Longitude": 116.612664, "Latitude": 39.859419}, {"name": "\u6d77\u6dc0\u533a \u5357\u6c99\u7a9d\u6865\u5357 \u8f85\u8def \u5317\u5411\u5357\u200b", "aa": "2",  "Longitude": 116.273677, "Latitude": 39.893373}, {"name": "\u671d\u9633\u533a \u4e07\u901a\u8def\u4e0e\u53cc\u6865\u897f\u8def\u4ea4\u53e3 \u897f\u5411\u4e1c\u200b", "aa": "2",  "Longitude": 116.590475, "Latitude": 39.858047}, {"name": "\u77f3\u666f\u5c71\u533a \u9c81\u8c37\u5927\u8857\u4e0e\u9c81\u8c37\u8def\u4ea4\u53e3  \u5317\u5411\u5357\u200b", "aa": "2",  "Longitude": 116.228946, "Latitude": 39.903378}, {"name": "\u5f00\u53d1\u533a \u79d1\u521b\u5341\u4e8c\u8857\u4e0e\u7ecf\u60e0\u4e1c\u8def\u4ea4\u53e3 \u5317\u5411\u5357\u200b", "aa": "2",  "Longitude": 116.576393, "Latitude": 39.791783}, {"name": "\u77f3\u666f\u5c71\u533a \u91d1\u5b89\u6865\u8def\u53e3 \u897f\u5411\u4e1c\u200b", "aa": "2",  "Longitude": 116.160285, "Latitude": 39.924247}, {"name": "\u4e30\u53f0\u533a \u516c\u76ca\u6865\u5317\u9f99\u95e8 \u5317\u5411\u5357\u200b", "aa": "2",  "Longitude": 116.379049, "Latitude": 39.833785}, {"name": "\u671d\u9633\u533a \u9ed1\u5e84\u6237\u8def\u4e0e\u4e07\u901a\u8def\u4ea4\u53e3\u4ea4\u53e3 \u5357\u5411\u5317", "aa": "2",  "Longitude": 116.613015, "Latitude": 39.859277}, {"name": "\u671d\u9633\u533a \u5317\u4e94\u73af\u8f85\u8def\u4e0e\u6797\u8403\u8def\u4ea4\u53e3 \u897f\u5411\u4e1c\u200b", "aa": "2",  "Longitude": 116.37357, "Latitude": 40.022221}, {"name": "\u660c\u5e73\u533a \u9ad8\u6559\u56ed\u5357\u4e09\u8857\u4e0e\u5317\u6c99\u6cb3\u4e2d\u8def\u8def\u53e3\u200b \u4e1c\u5411\u897f", "aa": "2",  "Longitude": 116.278456, "Latitude": 40.151316}, {"name": "\u6d77\u6dc0\u533a \u674f\u77f3\u53e3\u6865\u5357\u7b2c\u4e00\u5929\u6865 \u5357\u5317\u53cc\u5411", "aa": "2",  "Longitude": 116.215563, "Latitude": 39.9506}, {"name": "\u671d\u9633\u533a \u4e94\u73af\u8def\u5916\u73af\u5c0f\u90ca\u4ead\u6865\u5357\u51fa\u53e3 \u5357\u5411\u5317\u200b", "aa": "2",  "Longitude": 116.548549, "Latitude": 39.886}, {"name": "\u4e30\u53f0\u533a \u6cc9\u6e56\u897f\u8def\u4e0e\u5c71\u6e56\u8def\u4ea4\u53e3 \u897f\u5411\u4e1c\u3010\u516d\u73af\u5916\u3011\u200b", "aa": "6",  "Longitude": 116.099274, "Latitude": 39.793141}, {"name": "\u5f00\u53d1\u533a \u79d1\u8c37\u4e00\u8857\u4e0e\u7ecf\u60e0\u4e1c\u8def\u4ea4\u53e3 \u5317\u5411\u5357\u200b", "aa": "2",  "Longitude": 116.578465, "Latitude": 39.789283}, {"name": "\u671d\u9633\u533a \u56db\u5408\u5e84\u4e1c\u8def\u4e0e\u9ed1\u5e84\u6237\u8def\u4ea4\u53e3 \u4e1c\u5411\u897f", "aa": "2",  "Longitude": 116.613355, "Latitude": 39.859523}, {"name": "\u671d\u9633\u533a \u671d\u9633\u516c\u56ed\u5357\u8def\u4e0e\u516d\u91cc\u5c6f\u4e2d\u8857\u4ea4\u53e3 \u65b9\u5411\u5f85\u786e\u8ba4\u200b", "aa": "2",  "Longitude": 116.482243, "Latitude": 39.933723}, {"name": "\u671d\u9633\u533a \u56db\u5143\u897f\u6865\u897f \u4e1c\u5411\u897f", "aa": "2",  "Longitude": 116.459013, "Latitude": 39.972967}, {"name": "\u671d\u9633\u533a \u53cc\u6865\u897f\u8def\u4e0e\u4e07\u901a\u8def\u4ea4\u53e3 \u4e1c\u5411\u897f", "aa": "2",  "Longitude": 116.591244, "Latitude": 39.858195}, {"name": "\u671d\u9633\u533a \u53cc\u6865\u897f\u8def\u4e0e\u4e07\u901a\u8def\u4ea4\u53e3 \u5357\u5411\u5317", "aa": "2",  "Longitude": 116.59091, "Latitude": 39.857896}, {"name": "\u6d77\u6dc0\u533a \u540e\u5c6f\u8def\u4e0e\u897f\u5c0f\u53e3\u8def\u4ea4\u53e3 \u5357\u5411\u5317", "aa": "2",  "Longitude": 116.351127, "Latitude": 40.047944}, {"name": "\u660c\u5e73\u533a \u6c34\u5357\u8def\u4e0e\u6e29\u5357\u8def\u4ea4\u53e3 \u65b9\u5411\u5f85\u786e\u8ba4\u3010\u516d\u73af\u5916\u3011\u200b", "aa": "6",  "Longitude": 116.119261, "Latitude": 40.197285}, {"name": "\u5927\u5174\u533a \u4e94\u73af\u8def\u4e0a\u5357\u4e94\u73af\u65e7\u5fe0\u6865\u897f\u51fa\u53e3 \u4e1c\u5411\u897f\u200b", "aa": "2",  "Longitude": 116.435497, "Latitude": 39.789343}, {"name": "\u671d\u9633\u533a \u59da\u5bb6\u56ed\u8def\u4e0e\u751c\u6c34\u56ed\u8857\u4ea4\u53e3 \u4e1c\u5411\u897f\u200b", "aa": "2",  "Longitude": 116.478621, "Latitude": 39.931163}, {"name": "\u671d\u9633\u533a \u9752\u5e74\u6c9f\u8def\u53e3\u5317 \u5317\u5411\u5357\u200b", "aa": "2",  "Longitude": 116.42505, "Latitude": 39.962368}, {"name": "\u671d\u9633\u533a \u5468\u5bb6\u5e84\u5317\u8def\u4e1c\u53e3 \u4e1c\u5411\u897f\u200b", "aa": "2",  "Longitude": 116.486547, "Latitude": 39.861611}, {"name": "\u987a\u4e49\u533a \u9f99\u6e56\u9999\u918d\u4e2d\u8def\u4e0e\u725b\u680f\u5c71\u7b2c\u4e09\u5c0f\u5b66\u8def\u53e3\u4e1c \u4e1c\u5411\u897f\u3010\u516d\u73af\u5916\u3011", "aa": "6",  "Longitude": 116.666843, "Latitude": 40.205032}, {"name": "\u5f00\u53d1\u533a \u79d1\u521b\u5341\u4e03\u8857\u4e0e\u7ecf\u60e0\u897f\u8def\u4ea4\u53e3 \u897f\u5411\u4e1c\u200b", "aa": "2",  "Longitude": 116.586025, "Latitude": 39.776002}, {"name": "\u5f00\u53d1\u533a \u79d1\u8c37\u56db\u8857\u7ecf\u60e0\u4e1c\u8def\u4ea4\u53e3 \u4e1c\u5411\u897f\u200b", "aa": "2",  "Longitude": 116.5865, "Latitude": 39.781069}, {"name": "\u4e30\u53f0\u533a \u69b4\u4e61\u6865\u5317\u9f99\u95e8 \u5317\u5411\u5357\u200b", "aa": "2",  "Longitude": 116.421669, "Latitude": 39.837147}, {"name": "\u77f3\u666f\u5c71\u533a \u56ed\u535a\u56ed\u6865\u5317\u9ad8\u67b6\u6865 \u5357\u5317\u53cc\u5411\u200b", "aa": "2",  "Longitude": 116.210698, "Latitude": 39.870025}, {"name": "\u6d77\u6dc0\u533a \u4e0a\u5730\u6865\u897f \u897f\u5411\u4e1c \u8f85\u8def", "aa": "2",  "Longitude": 116.314619, "Latitude": 40.037177}, {"name": "\u4e30\u53f0\u533a \u9a6c\u5bb6\u5821\u4e1c\u8def\u6d77\u4e0a\u6d77\u82b1\u56ed\u4e01\u5b57\u8def\u53e3 \u5317\u5411\u5357\u200b", "aa": "2",  "Longitude": 116.386729, "Latitude": 39.837653}, {"name": "\u671d\u9633\u533a \u56db\u8def\u5c45\u5357\u8def\u4e0e\u671d\u9633\u7ad9\u4e1c\u8def\u4ea4\u53e3 \u4e1c\u5411\u897f\u200b", "aa": "2",  "Longitude": 116.51231, "Latitude": 39.947593}, {"name": "\u671d\u9633\u533a \u5965\u6797\u897f\u6865\u4e1c \u4e1c\u897f\u53cc\u5411", "aa": "2",  "Longitude": 116.390657, "Latitude": 40.022636}, {"name": "\u671d\u9633\u533a \u738b\u56db\u8425\u5317\u8def\u897f\u53e3\u81f3\u89c2\u97f3\u5802\u6865\u4e0b\u8def\u53e3\u6bb5900\u7c73 \u4e1c\u5411\u897f\u200b", "aa": "2",  "Longitude": 116.538492, "Latitude": 39.882862}, {"name": "\u671d\u9633\u533a \u9704\u4e91\u8def\u4e0e\u5929\u6cfd\u8def\u4ea4\u53e3 \u5357\u5411\u5317\u200b", "aa": "2",  "Longitude": 116.46581, "Latitude": 39.959738}, {"name": "\u5f00\u53d1\u533a \u51c9\u6c34\u6cb3\u8def\u4e0e\u535a\u5174\u8def\u4ea4\u53e3 \u897f\u5411\u4e1c\u200b", "aa": "2",  "Longitude": 116.515075, "Latitude": 39.771534}, {"name": "\u660c\u5e73\u533a \u6c34\u5357\u8def\u4e0e\u4e0a\u65e7\u8def\u8def\u53e3 \u4e1c\u5411\u897f\u3010\u516d\u73af\u5916\u3011\u200b", "aa": "6",  "Longitude": 116.192864, "Latitude": 40.201001}, {"name": "\u987a\u4e49\u533a \u9f99\u6e56\u9999\u918d\u4e2d\u8def\u4e0e\u725b\u680f\u5c71\u7b2c\u4e09\u5c0f\u5b66\u8def\u53e3\u897f \u897f\u5411\u4e1c\u3010\u516d\u73af\u5916\u3011", "aa": "6",  "Longitude": 116.665773, "Latitude": 40.205014}, {"name": "\u77f3\u666f\u5c71\u533a \u5317\u8f9b\u5b89\u8def\u4e0e\u53e4\u57ce\u897f\u8def\u4ea4\u53e3 \u4e1c\u5411\u897f", "aa": "2",  "Longitude": 116.168016, "Latitude": 39.914009}, {"name": "\u5f00\u53d1\u533a \u79d1\u521b\u516b\u8857\u4e0e\u7ecf\u6d77\u56db\u8def\u4ea4\u53e3 \u4e1c\u5411\u897f\u200b", "aa": "2",  "Longitude": 116.546565, "Latitude": 39.79787}, {"name": "\u6d77\u6dc0\u533a \u6c38\u4e30\u8def\u4e0e\u5fb7\u653f\u8def\u4ea4\u53e3 \u5317\u5411\u5357\u200b", "aa": "2",  "Longitude": 116.257281, "Latitude": 40.050424}, {"name": "\u77f3\u666f\u5c71\u533a \u91d1\u5b89\u6865\u8def\u53e3 \u5317\u5411\u5357", "aa": "2",  "Longitude": 116.161047, "Latitude": 39.924867}, {"name": "\u671d\u9633\u533a \u56db\u5143\u897f\u6865\u897f \u4e1c\u5411\u897f \u56db\u73af\u8f85\u8def\u200b", "aa": "2",  "Longitude": 116.463094, "Latitude": 39.975888}, {"name": "\u4e30\u53f0\u533a \u4e94\u73af\u8def\u5362\u6c9f\u6865\u51fa\u53e3 \u5916\u73af\u200b", "aa": "2",  "Longitude": 116.222262, "Latitude": 39.848151}, {"name": "\u671d\u9633\u533a \u79d1\u835f\u5357\u8def\u4e0e\u6797\u8403\u8def\u4ea4\u53e3 \u5317\u5411\u5357\u200b", "aa": "2",  "Longitude": 116.375431, "Latitude": 40.006631}, {"name": "\u4e30\u53f0\u533a \u79d1\u4e30\u6865\u5317\u9f99\u95e8 \u65b9\u5411\u5f85\u786e\u8ba4", "aa": "2",  "Longitude": 116.291214, "Latitude": 39.83206}, {"name": "\u4e30\u53f0\u533a \u6cb3\u9053\u7ba1\u7406\u4e8c\u6240\u897f\u4e94\u73af\u8def\u4e0a\u5317\u9f99\u95e8 \u5357\u5411\u5317", "aa": "2",  "Longitude": 116.250276, "Latitude": 39.826687}, {"name": "\u4e30\u53f0\u533a \u5fd7\u8fdc\u897f\u6865\u4e1c \u897f\u5411\u4e1c", "aa": "2",  "Longitude": 116.405785, "Latitude": 39.763204}, {"name": "\u4e30\u53f0\u533a \u72fc\u57a1\u4e1c\u6865\u9f99\u95e8 \u4e1c\u897f\u53cc\u5411", "aa": "2",  "Longitude": 116.298243, "Latitude": 39.778743}, {"name": "\u4e30\u53f0\u533a \u5218\u5bb6\u7a91\u6865\u5357\u9f99\u95e8 \u5317\u5411\u5357", "aa": "2",  "Longitude": 116.421995, "Latitude": 39.85475}, {"name": "\u671d\u9633\u533a \u80b2\u6167\u5357\u8def\u4e0e\u5317\u571f\u57ce\u8def\u4ea4\u53e3 \u5317\u5411\u5357\u200b", "aa": "2",  "Longitude": 116.431094, "Latitude": 39.977471}, {"name": "\u671d\u9633\u533a \u4e94\u73af\u8def\u73af\u94c1\u6865\u5317 \u65b9\u5411\u5f85\u786e\u8ba4\u200b", "aa": "2",  "Longitude": 116.516399, "Latitude": 39.98024}, {"name": "\u671d\u9633\u533a \u4e94\u73af\u8def\u5185\u73af\u5e7f\u987a\u6865\u4e1c\u51fa\u53e3 \u897f\u5411\u4e1c", "aa": "2",  "Longitude": 116.470985, "Latitude": 40.014796}, {"name": "\u6d77\u6dc0\u533a \u4e94\u73af\u4e3b\u8def\u4e0a\u6e05\u6865\u5916\u73af \u4e1c\u5411\u897f\u200b", "aa": "2",  "Longitude": 116.354641, "Latitude": 40.023142}, {"name": "\u671d\u9633\u533a \u4e94\u73af\u8def\u5185\u73af\u6765\u5e7f\u8425\u6865\u897f\u51fa\u53e3 \u200b\u897f\u5411\u4e1c", "aa": "2",  "Longitude": 116.451582, "Latitude": 40.017344}, {"name": "\u671d\u9633\u533a \u60e0\u65b0\u4e1c\u8857\u4e0e\u6587\u5b66\u9986\u8def\u4ea4\u53e3 \u65b9\u5411\u5f85\u786e\u8ba4\u200b", "aa": "2",  "Longitude": 116.424268, "Latitude": 39.98344}, {"name": "\u671d\u9633\u533a \u767e\u5b50\u6e7e\u6865\u897f \u4e1c\u5411\u897f", "aa": "2",  "Longitude": 116.489309, "Latitude": 39.900669}, {"name": "\u6d77\u6dc0\u533a \u897f\u5c0f\u53e3\u8def\u4e0e\u540e\u5c6f\u8def\u4ea4\u53e3 \u897f\u5411\u4e1c", "aa": "2",  "Longitude": 116.350463, "Latitude": 40.04816}, {"name": "\u897f\u57ce\u533a \u624b\u5e15\u53e3\u5317\u8857\u5317\u53e3\u5357 \u5357\u5411\u5317\u200b", "aa": "2",  "Longitude": 116.342482, "Latitude": 39.897039}, {"name": "\u5f00\u53d1\u533a \u7ecf\u60e0\u4e1c\u8def\u4e0e\u79d1\u8c37\u4e00\u8857\u4ea4\u53e3 \u5357\u5411\u5317\u200b", "aa": "2",  "Longitude": 116.579182, "Latitude": 39.788636}, {"name": "\u4e30\u53f0\u533a \u4e3d\u69d0\u8857\u4e0e\u69d0\u623f\u8def\u4e01\u5b57\u53e3\u897f \u897f\u5411\u4e1c\u200b", "aa": "2",  "Longitude": 116.377025, "Latitude": 39.808297}, {"name": "\u6d77\u6dc0\u533a \u540e\u5382\u6751\u8def\u4e0e\u5510\u5bb6\u5cad\u8def\u4ea4\u53e3\u8def\u53e3\u897f\u4fa7 \u897f\u5411\u4e1c\u200b", "aa": "2",  "Longitude": 116.292536, "Latitude": 40.052941}, {"name": "\u6d77\u6dc0\u533a \u6c38\u4e30\u8def\u4e0e\u5fb7\u653f\u8def\u4ea4\u53e3 \u5357\u5411\u5317", "aa": "2",  "Longitude": 116.257828, "Latitude": 40.049693}, {"name": "\u4e30\u53f0\u533a \u65e7\u5bab\u6865\u4e1c \u897f\u5411\u4e1c", "aa": "2",  "Longitude": 116.437029, "Latitude": 39.789683}, {"name": "\u671d\u9633\u533a \u53cc\u6865\u897f\u8def\u4e0e\u4e07\u901a\u8def \u5317\u5411\u5357", "aa": "2",  "Longitude": 116.590796, "Latitude": 39.8584}, {"name": "\u671d\u9633\u533a \u53cc\u6865\u4e1c\u8def\u4e0e\u56db\u5408\u5e84\u4e1c\u8def\u4ea4\u53e3 \u5317\u5411\u5357", "aa": "2",  "Longitude": 116.613012, "Latitude": 39.859672}, {"name": "\u671d\u9633\u533a \u5317\u4e94\u73af\u8f85\u8def\u4e0e\u9ed1\u6cc9\u8def \u4e1c\u5411\u897f\u200b", "aa": "2",  "Longitude": 116.374815, "Latitude": 40.023073}, {"name": "\u901a\u5dde\u533a \u901a\u80e1\u5927\u8857\u53e4\u57ce\u897f\u6865\u897f \u4e1c\u5411\u897f \u8f85\u8def\u200b", "aa": "2",  "Longitude": 116.708482, "Latitude": 39.918586}, {"name": "\u77f3\u666f\u5c71\u533a \u96d5\u5851\u56ed\u4e2d\u8857\u5357\u53e3 \u897f\u5411\u4e1c\u200b", "aa": "2",  "Longitude": 116.242413, "Latitude": 39.903816}, {"name": "\u5f00\u53d1\u533a \u79d1\u8c37\u4e8c\u8857\u4e0e\u7ecf\u60e0\u4e1c\u8def\u4ea4\u53e3 \u5317\u5411\u5357", "aa": "2",  "Longitude": 116.580891, "Latitude": 39.786659}, {"name": "\u5ef6\u5e86\u533a \u5201\u5343\u8425\u8def\u53e3 \u897f\u5357\u5411\u4e1c\u5317\u200b\u3010\u516d\u73af\u5916\u3011", "aa": "6",  "Longitude": 115.903445, "Latitude": 40.38511}, {"name": "\u671d\u9633\u533a \u5de5\u5927\u6865\u5317 \u5317\u5411\u5357 \u56db\u73af\u8f85\u8def\u200b", "aa": "2",  "Longitude": 116.489266, "Latitude": 39.876573}, {"name": "\u6d77\u6dc0\u533a \u77e5\u6625\u8def\u77e5\u6e05\u8def\u53e3 \u4e1c\u5411\u897f\u200b", "aa": "2",  "Longitude": 116.334108, "Latitude": 39.976574}, {"name": "\u5f00\u53d1\u533a \u79d1\u8c37\u4e8c\u8857\u4e0e\u7ecf\u60e0\u4e1c\u8def\u4ea4\u53e3 \u5357\u5411\u5317\u200b", "aa": "2",  "Longitude": 116.581457, "Latitude": 39.786177}, {"name": "\u671d\u9633\u533a \u5b89\u7acb\u8def\u4e0e\u4ef0\u5c71\u8def\u4ea4\u53e3 \u5357\u5411\u5317\u200b", "aa": "2",  "Longitude": 116.409736, "Latitude": 40.02719}, {"name": "\u623f\u5c71\u533a \u957f\u653f\u5357\u8def\u4e0e\u957f\u9633\u8def\u8def\u53e3 \u4e1c\u5411\u897f \u8f85\u8def", "aa": "2",  "Longitude": 116.215691, "Latitude": 39.75332}, {"name": "\u5f00\u53d1\u533a \u7ecf\u60e0\u897f\u8def\u4e0e\u79d1\u8c37\u4e94\u8857\u4ea4\u53e3 \u5357\u5411\u5317\u200b", "aa": "2",  "Longitude": 116.585913, "Latitude": 39.778258}, {"name": "\u5f00\u53d1\u533a \u79d1\u8c37\u4e94\u8857\u4e0e\u7ecf\u60e0\u4e1c\u8def \u4e1c\u5411\u897f\u200b", "aa": "2",  "Longitude": 116.588176, "Latitude": 39.779197}, {"name": "\u5f00\u53d1\u533a \u79d1\u8c37\u4e8c\u8857\u7ecf\u60e0\u4e1c\u8def \u4e1c\u5411\u897f\u200b", "aa": "2",  "Longitude": 116.581559, "Latitude": 39.786674}, {"name": "\u5f00\u53d1\u533a \u79d1\u521b\u5341\u4e8c\u8857\u4e0e\u7ecf\u6d77\u4e5d\u8def \u4e1c\u5411\u897f\u200b", "aa": "2",  "Longitude": 116.579591, "Latitude": 39.793522}, {"name": "\u5f00\u53d1\u533a \u7ecf\u6d77\u4e5d\u8def\u79d1\u8c37\u56db\u8857\u4ea4\u53e3 \u5317\u5411\u5357", "aa": "2",  "Longitude": 116.588917, "Latitude": 39.782651}, {"name": "\u5f00\u53d1\u533a \u79d1\u521b\u5341\u56db\u8857\u4e0e\u7ecf\u6d77\u56db\u8def \u65b9\u5411\u5f85\u786e\u8ba4", "aa": "2",  "Longitude": 116.56429, "Latitude": 39.777847}, {"name": "\u5f00\u53d1\u533a \u7ecf\u6d77\u4e5d\u8def\u4e0e\u79d1\u8c37\u4e8c\u8857  \u5357\u5411\u5317", "aa": "2",  "Longitude": 116.584491, "Latitude": 39.787757}, {"name": "\u5f00\u53d1\u533a \u79d1\u8c37\u4e8c\u8857\u4e0e\u7ecf\u60e0\u897f\u8def \u5357\u5411\u5317\u200b", "aa": "2",  "Longitude": 116.57939, "Latitude": 39.785006}, {"name": "\u5f00\u53d1\u533a \u7ecf\u6d77\u4e5d\u8def\u79d1\u8c37\u56db\u8857\u4ea4\u53e3 \u5357\u5411\u5317\u200b", "aa": "2",  "Longitude": 116.589884, "Latitude": 39.781985}, {"name": "\u6d77\u6dc0\u533a \u5b66\u9662\u5357\u8def\u4e0e\u4ea4\u5927\u4e1c\u8def\u4ea4\u53e3 \u5357\u5411\u5317\u200b", "aa": "2",  "Longitude": 116.346258, "Latitude": 39.957928}, {"name": "\u901a\u5dde\u533a \u65b0\u534e\u4e1c\u8857\u4e0e\u5357\u5927\u8857\u4ea4\u53e3 \u897f\u5411\u4e1c \u8f85\u8def\u200b", "aa": "2",  "Longitude": 116.669085, "Latitude": 39.908416}, {"name": "\u5f00\u53d1\u533a \u79d1\u521b\u5341\u56db\u8857\u4e0e\u901a\u60e0\u5e72\u6e20\u8def \u65b9\u5411\u5f85\u786e\u8ba4\u200b", "aa": "2",  "Longitude": 116.573842, "Latitude": 39.782497}, {"name": "\u5f00\u53d1\u533a \u79d1\u8c37\u56db\u8857\u4e0e\u7ecf\u6d77\u4e5d\u8def\u4ea4\u53e3 \u897f\u5411\u4e1c\u200b", "aa": "2",  "Longitude": 116.588952, "Latitude": 39.782203}, {"name": "\u5f00\u53d1\u533a \u5929\u5b9d\u5317\u8857\u4e0e\u79d1\u6167\u5927\u9053 \u5317\u5411\u5357\u200b", "aa": "2",  "Longitude": 116.4892, "Latitude": 39.796574}, {"name": "\u5f00\u53d1\u533a \u79d1\u8c37\u4e8c\u8857\u4e0e\u7ecf\u60e0\u897f\u8def\u4ea4\u53e3 \u897f\u5411\u4e1c", "aa": "2",  "Longitude": 116.578975, "Latitude": 39.785058}, {"name": "\u5f00\u53d1\u533a \u79d1\u8c37\u4e8c\u8857\u4e0e\u7ecf\u60e0\u897f\u8def\u4ea4\u53e3 \u4e1c\u5411\u897f", "aa": "2",  "Longitude": 116.579472, "Latitude": 39.785452}, {"name": "\u5f00\u53d1\u533a \u79d1\u8c37\u4e00\u8857\u4e0e\u7ecf\u60e0\u4e1c\u8def\u4ea4\u53e3 \u897f\u5411\u4e1c", "aa": "2",  "Longitude": 116.578562, "Latitude": 39.78866}, {"name": "\u5f00\u53d1\u533a \u79d1\u8c37\u4e00\u8857\u4e0e\u7ecf\u60e0\u4e1c\u8def\u4ea4\u53e3 \u4e1c\u5411\u897f", "aa": "2",  "Longitude": 116.579186, "Latitude": 39.789101}, {"name": "\u5f00\u53d1\u533a \u7ecf\u6d77\u4e5d\u8def\u4e0e\u79d1\u521b\u5341\u4e8c\u8857\u4ea4\u53e3 \u5317\u5411\u5357", "aa": "2",  "Longitude": 116.578747, "Latitude": 39.793731}, {"name": "\u5f00\u53d1\u533a \u7ecf\u6d77\u4e5d\u8def\u4e0e\u79d1\u521b\u5341\u4e8c\u8857\u4ea4\u53e3 \u5357\u5411\u5317", "aa": "2",  "Longitude": 116.579699, "Latitude": 39.792962}, {"name": "\u623f\u5c71\u533a \u4eac\u6e2f\u6fb3\u9ad8\u901f10.7\u516c\u91cc\u5904 \u51fa\u4eac\u200b", "aa": "2",  "Longitude": 116.212035, "Latitude": 39.833072}, {"name": "\u5f00\u53d1\u533a \u6cf0\u6cb3\u8def\u4e0e\u535a\u5174\u4e09\u8def\u4ea4\u53e3 \u4e1c\u5411\u897f \u8f85\u8def\u200b", "aa": "2",  "Longitude": 116.523287, "Latitude": 39.757642}, {"name": "\u5f00\u53d1\u533a \u51c9\u6c34\u6cb3\u8def\u4e0e\u535a\u5174\u8def\u4ea4\u53e3 \u4e1c\u5411\u897f\u200b", "aa": "2",  "Longitude": 116.516839, "Latitude": 39.771082}, {"name": "\u5f00\u53d1\u533a \u6cf0\u6cb3\u8def\u4e0e\u535a\u5174\u4e09\u8def \u4e1c\u5411\u897f\u200b", "aa": "2",  "Longitude": 116.523479, "Latitude": 39.757513}, {"name": "\u5f00\u53d1\u533a \u51c9\u6c34\u6cb3\u8def\u4e0e\u535a\u5174\u8def\u4ea4\u53e3 \u5317\u5411\u5357", "aa": "2",  "Longitude": 116.516057, "Latitude": 39.771918}, {"name": "\u5f00\u53d1\u533a \u51c9\u6c34\u6cb3\u8def\u4e0e\u535a\u5174\u8def\u4ea4\u53e3 \u5357\u5411\u5317\u200b", "aa": "2",  "Longitude": 116.515964, "Latitude": 39.770887}, {"name": "\u5f00\u53d1\u533a \u5317\u73af\u897f\u8def\u4e0e\u79d1\u6167\u5927\u9053\u4ea4\u53e3 \u5317\u5411\u5357\u200b", "aa": "2",  "Longitude": 116.485431, "Latitude": 39.801312}, {"name": "\u4e30\u53f0\u533a \u9a6c\u5bb6\u5821\u4e1c\u8def\u56db\u8def\u901a\u8def\u53e3 \u5357\u5411\u5317\u200b", "aa": "2",  "Longitude": 116.387481, "Latitude": 39.864731}, {"name": "\u671d\u9633\u533a \u79d1\u5b66\u56ed\u5357\u91cc\u4e1c\u8857\u897f\u53e3 \u5357\u5411\u5317\u200b", "aa": "2",  "Longitude": 116.380391, "Latitude": 39.997398}, {"name": "\u5f00\u53d1\u533a \u79d1\u521b\u5341\u4e00\u8857\u4e0e\u7ecf\u6d77\u8def \u4e1c\u5411\u897f\u200b", "aa": "2",  "Longitude": 116.560986, "Latitude": 39.787814}, {"name": "\u623f\u5c71\u533a \u960e\u6cb3\u8def\u5de1\u7ebf\u8def\u53e3\u4e1c \u4e1c\u5411\u897f\u3010\u516d\u73af\u5916\u3011\u200b", "aa": "6",  "Longitude": 116.045977, "Latitude": 39.753222}, {"name": "\u901a\u5dde\u533a \u65b0\u534e\u4e1c\u8857\u4e0e\u5357\u5927\u8857\u4ea4\u53e3 \u5317\u5411\u5357\u200b", "aa": "2",  "Longitude": 116.668673, "Latitude": 39.908175}, {"name": "\u5f00\u53d1\u533a \u79d1\u521b\u5341\u4e00\u8857\u4e0e\u901a\u60e0\u5e72\u6e20\u8def \u5357\u5411\u5317\u200b", "aa": "2",  "Longitude": 116.572838, "Latitude": 39.793092}, {"name": "\u4e30\u53f0\u533a \u82b1\u4e61\u6865\u4e1c \u4e1c\u5411\u897f \u56db\u73af\u8f85\u8def\u200b", "aa": "2",  "Longitude": 116.325118, "Latitude": 39.830862}, {"name": "\u6000\u67d4\u533a \u6000\u803f\u8def\u4e0e\u82d7\u5703\u8def\u4ea4\u53e3\u4e1c \u4e1c\u5411\u897f\u3010\u516d\u73af\u5916\u3011\u200b", "aa": "6",  "Longitude": 116.71312, "Latitude": 40.287642}, {"name": "\u4e30\u53f0\u533a \u897f\u4e09\u73af\u8f85\u8def\u4e3d\u6cfd\u6865\u5357\u7b2c\u4e00\u8fc7\u8857\u5929\u6865\u531740\u7c73 \u5357\u5411\u5317", "aa": "2",  "Longitude": 116.313124, "Latitude": 39.864372}, {"name": "\u901a\u5dde\u533a \u7389\u5e26\u6cb3\u4e1c\u8857\u4e0e\u6545\u57ce\u4e1c\u8def\u4ea4\u53e3 \u897f\u5411\u4e1c", "aa": "2",  "Longitude": 116.677293, "Latitude": 39.900497}, {"name": "\u671d\u9633\u533a \u8096\u6751\u6865\u8fc7\u8857\u5929\u6865 \u4e1c\u5411\u897f \u56db\u73af\u8f85\u8def", "aa": "2",  "Longitude": 116.453581, "Latitude": 39.832919}, {"name": "\u671d\u9633\u533a \u5b89\u6167\u5317\u91cc\u53e3 \u4e1c\u5411\u897f\u200b", "aa": "2",  "Longitude": 116.41297, "Latitude": 39.998863}, {"name": "\u5f00\u53d1\u533a \u8363\u534e\u4e2d\u8def\u4e0e\u4e07\u6e90\u8857\u4ea4\u53e3 \u5357\u5411\u5317 \u8f85\u8def\u200b", "aa": "2",  "Longitude": 116.502628, "Latitude": 39.802264}, {"name": "\u987a\u4e49\u533a \u4e2d\u5e72\u6e20\u8def\u4e0e\u9ad8\u8346\u8def\u4ea4\u53e3\u5317 \u5317\u5411\u5357\u3010\u516d\u73af\u5916\u3011\u200b", "aa": "6",  "Longitude": 116.849626, "Latitude": 40.092137}, {"name": "\u660c\u5e73\u533a  \u56de\u5357\u5317\u8def\u4e0e\u80b2\u77e5\u4e1c\u8def\u8def\u53e3 \u4e1c\u5411\u897f", "aa": "2",  "Longitude": 116.332323, "Latitude": 40.088556}, {"name": "\u987a\u4e49\u57ce\u533a \u5e9c\u524d\u8857\u4ea4\u901a\u5c40\u8def\u53e3 \u4e1c\u5411\u897f\u3010\u987a\u4e49\u57ce\u533a\u9ad8\u5cf0\u671f\u3011\u200b", "aa": "1",  "Longitude": 116.649373, "Latitude": 40.130031}, {"name": "\u5ef6\u5e86\u533a \u4eac\u85cf\u9ad8\u901f59.24\u516c\u91cc\u8fdb\u4eac \u5317\u5411\u5357\u3010\u516d\u73af\u5916\u3011\u200b", "aa": "6",  "Longitude": 115.977617, "Latitude": 40.363095}, {"name": "\u897f\u57ce\u533a \u5e7f\u5b89\u95e8\u6865\u5357 \u5357\u5317\u53cc\u5411\uff08\u4e8c\u73af\u4e3b\u8def\uff09", "aa": "2",  "Longitude": 116.348815, "Latitude": 39.886282}, {"name": "\u4e30\u53f0\u533a \u5357\u5927\u7ea2\u95e8\u8def\u4e07\u6e90\u8def\u53e3\u5317 \u5357\u5411\u5317\u200b", "aa": "2",  "Longitude": 116.417272, "Latitude": 39.804946}, {"name": "\u5e73\u8c37\u533a \u76d8\u5cf0\u5bbe\u9986\u8def\u53e3\u4e1c \u4e1c\u5411\u897f\u3010\u516d\u73af\u5916\u3011\u200b\u200b", "aa": "6",  "Longitude": 117.130185, "Latitude": 40.139619}, {"name": "\u987a\u4e49\u57ce\u533a \u5149\u660e\u5357\u8857\u4e0e\u5e9c\u524d\u4e2d\u8857\u4ea4\u53e3\u5357\u4fa7\u8def\u6bb5 \u5317\u5411\u5357\u3010\u987a\u4e49\u57ce\u533a\u9ad8\u5cf0\u671f\u3011", "aa": "1",  "Longitude": 116.656766, "Latitude": 40.129061}, {"name": "\u4e30\u53f0\u533a \u5927\u7070\u5382\u8def\u946b\u6e56\u5bb6\u56ed\u4e1c\u4fa7\u8def\u53e3\u4e1c \u4e1c\u897f\u53cc\u5411", "aa": "2",  "Longitude": 116.129325, "Latitude": 39.796449}, {"name": "\u901a\u5dde\u533a \u65b0\u534e\u4e1c\u8857\u4e0e\u5357\u5927\u8857\u4ea4\u53e3 \u5357\u5411\u5317", "aa": "2",  "Longitude": 116.668681, "Latitude": 39.909}, {"name": "\u4e30\u53f0\u533a \u6021\u6d77\u82b1\u56ed\u8fc7\u8857\u5929\u6865 \u4e1c\u5411\u897f \u8f85\u8def\u200b", "aa": "2",  "Longitude": 116.301799, "Latitude": 39.830823}, {"name": "\u671d\u9633\u533a \u56db\u73af\u671b\u548c\u6865\u4e1c\u8fc7\u8857\u5929\u6865 \u4e1c\u5411\u897f \u8f85\u8def\u200b", "aa": "2",  "Longitude": 116.446556, "Latitude": 39.986351}, {"name": "\u901a\u5dde\u533a \u7389\u5e26\u6cb3\u4e1c\u8857\u4e0e\u6545\u57ce\u4e1c\u8def\u4ea4\u53e3 \u5357\u5411\u5317\u200b", "aa": "2",  "Longitude": 116.6767, "Latitude": 39.900802}, {"name": "\u5e73\u8c37\u533a \u6768\u674f\u8def\u4e0e\u5cea\u8521\u8def\u4ea4\u53e3\u5357 \u5357\u5411\u5317\u3010\u516d\u73af\u5916\u3011\u200b", "aa": "6",  "Longitude": 117.019325, "Latitude": 40.184282}, {"name": "\u671d\u9633\u533a \u671b\u548c\u6865\u897f\u8fc7\u8857\u5929\u6865 \u897f\u5411\u4e1c \u56db\u73af\u8f85\u8def\u200b", "aa": "2",  "Longitude": 116.437823, "Latitude": 39.988793}, {"name": "\u901a\u5dde\u533a \u7389\u5e26\u6cb3\u4e1c\u8857\u4e0e\u6545\u57ce\u4e1c\u8def\u4ea4\u53e3 \u4e1c\u5411\u897f\u200b", "aa": "2",  "Longitude": 116.676051, "Latitude": 39.900438}, {"name": "\u901a\u5dde\u533a \u65b0\u534e\u4e1c\u8857\u4e0e\u5357\u5927\u8857\u4ea4\u53e3 \u897f\u5411\u4e1c\u200b", "aa": "2",  "Longitude": 116.669029, "Latitude": 39.908503}, {"name": "\u4e30\u53f0\u533a \u4e30\u53f0\u5927\u6865\u5317 \u5317\u5411\u5357 \u8f85\u8def\u200b", "aa": "2",  "Longitude": 116.283254, "Latitude": 39.848792}, {"name": "\u660c\u5e73\u533a  \u4e1c\u65b0\u8857\u4e0e\u4e1c\u4e09\u65d7\u8def\u8def\u53e3 \u65b9\u5411\u5f85\u786e\u8ba4", "aa": "2",  "Longitude": 116.422975, "Latitude": 40.102221}, {"name": "\u623f\u5c71\u533a \u957f\u6c9f\u575f\u5e84\u8def\u53e3\u897f \u897f\u5411\u4e1c\u3010\u516d\u73af\u5916\u3011\u200b", "aa": "6",  "Longitude": 115.88437, "Latitude": 39.567666}, {"name": "\u200b\u5f00\u53d1\u533a \u79d1\u521b\u5341\u4e00\u8857\u4e0e\u7ecf\u6d77\u8def\u4ea4\u53e3  \u5317\u5411\u5357", "aa": "2",  "Longitude": 116.560104, "Latitude": 39.787874}, {"name": "\u660c\u5e73\u533a \u80b2\u77e5\u8def\u9f99\u79a7\u4e8c\u8857\u8def\u53e3 \u5317\u5411\u5357\u200b", "aa": "2",  "Longitude": 116.325694, "Latitude": 40.085031}, {"name": "\u660c\u5e73\u533a \u9ad8\u6559\u56ed\u5357\u4e09\u8857\u4e0e\u5146\u4e30\u5bb6\u56ed\u8def\u8def\u53e3\u897f \u897f\u5411\u4e1c\u200b", "aa": "2",  "Longitude": 116.280759, "Latitude": 40.151821}, {"name": "\u671d\u9633\u533a \u5b89\u6167\u5317\u91cc\u53e3 \u5317\u5411\u5357\u200b", "aa": "2",  "Longitude": 116.412723, "Latitude": 39.999032}, {"name": "\u671d\u9633\u533a \u5c0f\u6b66\u57fa\u8fc7\u8857\u5929\u6865 \u5357\u5411\u5317 \u56db\u73af\u8f85\u8def\u200b", "aa": "2",  "Longitude": 116.487598, "Latitude": 39.861853}, {"name": "\u660c\u5e73\u533a \u80b2\u77e5\u8def\u9f99\u79a7\u4e09\u8857\u8def\u53e3 \u5357\u5411\u5317", "aa": "2",  "Longitude": 116.327518, "Latitude": 40.081209}, {"name": "\u660c\u5e73\u533a \u4e1c\u76db\u8857\u4e0e\u4e1c\u4e09\u65d7\u8def\u8def\u53e3 \u5357\u5411\u5317", "aa": "2",  "Longitude": 116.422939, "Latitude": 40.099561}, {"name": "\u660c\u5e73\u533a \u7acb\u6c64\u8def\u4e0e\u4e1c\u5317\u8def\u4ea4\u53e3 \u5357\u5411\u5317 \u8f85\u8def\u200b", "aa": "2",  "Longitude": 116.409031, "Latitude": 40.128266}, {"name": "\u660c\u5e73\u533a \u56db\u573a\u8def\u4e0e\u79e6\u4e0a\u8def\u4ea4\u53e3 \u4e1c\u5411\u897f\u3010\u516d\u73af\u5916\u3011", "aa": "6",  "Longitude": 116.38885, "Latitude": 40.161205}, {"name": "\u660c\u5e73\u533a \u6c34\u5357\u8def\u4e0e\u4ead\u9633\u8def\u4ea4\u53e3 \u65b9\u5411\u5f85\u786e\u8ba4\u3010\u516d\u73af\u5916\u3011", "aa": "6",  "Longitude": 116.153407, "Latitude": 40.19839}, {"name": "\u660c\u5e73\u533a \u795e\u725b\u8def\u4e0e\u660c\u6d41\u8def\u8def\u53e3 \u5357\u5411\u5317\u3010\u516d\u73af\u5916\u3011\u200b\u200b", "aa": "6",  "Longitude": 116.169278, "Latitude": 40.181814}, {"name": "\u660c\u5e73\u533a \u4e03\u661f\u8def\u4e0e\u56de\u5357\u8def\u4ea4\u53e3 \u5357\u5411\u5317\u200b", "aa": "2",  "Longitude": 116.434827, "Latitude": 40.088569}, {"name": "\u660c\u5e73\u533a \u6c34\u5357\u8def\u4e0e\u4e0a\u5964\u8def\u4ea4\u53e3 \u65b9\u5411\u5f85\u786e\u8ba4\u200b\u3010\u516d\u73af\u5916\u3011", "aa": "6",  "Longitude": 116.184226, "Latitude": 40.200465}, {"name": "\u660c\u5e73\u533a \u672a\u6765\u79d1\u5b66\u57ce\u8def\u4e0e\u82f1\u624d\u5357\u4e8c\u8857\u4ea4\u53e3 \u5357\u5411\u5317\u200b", "aa": "2",  "Longitude": 116.468003, "Latitude": 40.112428}, {"name": "\u660c\u5e73\u533a \u7acb\u6c64\u8def\u4e0e\u592a\u5e73\u5e84\u4e2d\u8857\u4ea4\u53e3 \u897f\u5411\u4e1c\u200b", "aa": "2",  "Longitude": 116.413765, "Latitude": 40.067925}, {"name": "\u4e30\u53f0\u533a \u9a6c\u5bb6\u697c\u6865\u897f \u897f\u5411\u4e1c \u56db\u73af\u8f85\u8def\u200b", "aa": "2",  "Longitude": 116.336156, "Latitude": 39.830399}, {"name": "\u660c\u5e73\u533a \u987a\u6c99\u8def\u4e0e\u5c0f\u6c64\u5c71\u53cc\u5174\u82d1\u5c0f\u533a\u8def\u53e3 \u4e1c\u5411\u897f\u3010\u516d\u73af\u5916\u3011\u200b", "aa": "6",  "Longitude": 116.384315, "Latitude": 40.175932}, {"name": "\u987a\u4e49\u533a \u660c\u91d1\u8def\u4e0e\u817e\u4ec1\u8def\u8def\u53e3\u897f \u897f\u5411\u4e1c\u200b\u3010\u516d\u73af\u5916\u3011", "aa": "6",  "Longitude": 116.634646, "Latitude": 40.211467}, {"name": "\u660c\u5e73\u533a \u4e03\u661f\u8def\u4e0e\u56de\u5357\u8def\u4ea4\u53e3 \u5317\u5411\u5357\u200b", "aa": "2",  "Longitude": 116.43463, "Latitude": 40.089308}, {"name": "\u660c\u5e73\u533a \u672a\u6765\u79d1\u5b66\u57ce\u8def\u4e0e\u82f1\u624d\u5357\u4e8c\u8857\u4ea4\u53e3 \u5317\u5411\u5357\u200b", "aa": "2",  "Longitude": 116.467924, "Latitude": 40.113139}, {"name": "\u660c\u5e73\u533a \u7acb\u6c64\u8def\u4e0e\u4e1c\u5317\u8def\u4ea4\u53e3 \u5317\u5411\u5357", "aa": "2",  "Longitude": 116.408116, "Latitude": 40.129205}, {"name": "\u660c\u5e73\u533a \u7acb\u6c64\u8def\u4e0e\u4e1c\u5317\u8def\u4ea4\u53e3 \u5357\u5411\u5317", "aa": "2",  "Longitude": 116.408824, "Latitude": 40.128249}, {"name": "\u901a\u5dde\u533a \u7389\u5e26\u6cb3\u4e1c\u8857\u4e0e\u8f66\u7ad9\u8def\u4ea4\u53e3 \u5357\u5411\u5317", "aa": "2",  "Longitude": 116.662823, "Latitude": 39.90025}, {"name": "\u901a\u5dde\u533a \u7389\u5e26\u6cb3\u4e1c\u8857\u4e0e\u8f66\u7ad9\u8def\u4ea4\u53e3 \u897f\u5411\u4e1c", "aa": "2",  "Longitude": 116.663303, "Latitude": 39.900042}, {"name": "\u901a\u5dde\u533a \u7389\u5e26\u6cb3\u4e1c\u8857\u4e0e\u8f66\u7ad9\u8def\u4ea4\u53e3 \u4e1c\u5411\u897f", "aa": "2",  "Longitude": 116.662545, "Latitude": 39.900161}, {"name": "\u901a\u5dde\u533a \u516d\u73af\u8def\u9a6c\u9a79\u6865\u4e09\u53f7\u6865 \u65b9\u5411\u5f85\u786e\u8ba4\u3010\u516d\u73af\u5916\u3011\u200b\u200b", "aa": "6",  "Longitude": 116.559114, "Latitude": 39.746946}, {"name": "\u200b\u6d77\u6dc0\u533a \u897f\u4e8c\u65d7\u4e1c\u4e00\u8def\u5357\u53e3\u897f \u897f\u5411\u4e1c", "aa": "2",  "Longitude": 116.322575, "Latitude": 40.057512}, {"name": "\u671d\u9633\u533a \u7a91\u6d3c\u6e56\u6865\u5317 \u5357\u5411\u5317 \u8f85\u8def", "aa": "2",  "Longitude": 116.490074, "Latitude": 39.884772}, {"name": "\u671d\u9633\u533a \u5e7f\u6e20\u8def\u4e0e\u897f\u5927\u671b\u8def\u4ea4\u53e3\u897f\u4fa7 \u897f\u5411\u4e1c\u200b", "aa": "2",  "Longitude": 116.476906, "Latitude": 39.893126}, {"name": "\u4e30\u53f0\u533a \u9a6c\u5bb6\u697c\u6865\u897f \u4e1c\u5411\u897f \u8f85\u8def\u200b", "aa": "2",  "Longitude": 116.336025, "Latitude": 39.830939}, {"name": "\u4e30\u53f0\u533a \u53f3\u5b89\u95e8\u5357\u6865 \u5317\u5411\u5357\u200b", "aa": "2",  "Longitude": 116.364846, "Latitude": 39.854227}, {"name": "\u77f3\u666f\u5c71\u533a \u7fa4\u660e\u6e56\u5927\u8857\u4e0e\u4e94\u4e00\u5267\u573a\u5357\u8def\u4ea4\u53e3\u5357\u5411\u5317\u200b", "aa": "2",  "Longitude": 116.157727, "Latitude": 39.915652}, {"name": "\u5f00\u53d1\u533a \u79d1\u521b\u5341\u4e00\u8857\u4e0e\u7ecf\u6d77\u56db\u8def\u4ea4\u53e3 \u4e1c\u5411\u897f\u200b", "aa": "2",  "Longitude": 116.557232, "Latitude": 39.785998}, {"name": "\u671d\u9633\u533a \u5173\u5e84\u8def \u4e1c\u5411\u897f\u200b", "aa": "2",  "Longitude": 116.434076, "Latitude": 40.000887}, {"name": "\u623f\u5c71\u533a \u6708\u534e\u5317\u5927\u8857\u4e0e\u62f1\u8fb0\u5317\u5927\u8857\u4ea4\u53e3 \u897f\u5411\u4e1c \u8f85\u8def", "aa": "2",  "Longitude": 116.143164, "Latitude": 39.743583}, {"name": "\u623f\u5c71\u533a \u623f\u6613\u8def\u4e0e\u5e9c\u524d\u8857\u4ea4\u53e3\u897f \u897f\u5411\u4e1c\u3010\u516d\u73af\u5916\u3011", "aa": "6",  "Longitude": 115.717014, "Latitude": 39.569662}, {"name": "\u6000\u67d4\u533a \u53e3\u5934\u6751\u5317\u53e3\u4e1c \u4e1c\u5411\u897f\u3010\u516d\u73af\u5916\u3011\u200b", "aa": "6",  "Longitude": 116.576196, "Latitude": 40.363241}, {"name": "\u660c\u5e73\u533a \u200b\u660c\u8d64\u8def\u5317\u65b0\u6751\u8def\u53e3\u897f \u897f\u5411\u4e1c\u3010\u516d\u73af\u5916\u3011", "aa": "6",  "Longitude": 116.241414, "Latitude": 40.283411}, {"name": "\u623f\u5c71\u533a \u9f99\u4e0b\u8def\u9a7e\u6821\u53e3\u897f \u897f\u5411\u4e1c\u200b\u3010\u516d\u73af\u5916\u3011", "aa": "6",  "Longitude": 115.874454, "Latitude": 39.61576}, {"name": "\u77f3\u666f\u5c71\u533a \u96d5\u5851\u56ed\u4e2d\u8857\u5357\u53e3 \u4e1c\u5411\u897f", "aa": "2",  "Longitude": 116.243504, "Latitude": 39.903896}, {"name": "\u5f00\u53d1\u533a \u79d1\u8c37\u4e00\u8857\u7ecf\u60e0\u897f\u8def \u65b9\u5411\u5f85\u786e\u8ba4\u200b", "aa": "2",  "Longitude": 116.576874, "Latitude": 39.787778}, {"name": "\u5f00\u53d1\u533a \u79d1\u521b\u5341\u4e00\u8857\u4e0e\u901a\u60e0\u5e72\u6e20\u8def \u5317\u5411\u5357", "aa": "2",  "Longitude": 116.572706, "Latitude": 39.793682}, {"name": "\u53d1\u533a \u79d1\u521b\u5341\u4e00\u8857\u4e0e\u7ecf\u6d77\u4e03\u8def \u5df2\u77e5\u4e1c\u5411\u897f", "aa": "2",  "Longitude": 116.570977, "Latitude": 39.792593}, {"name": "\u987a\u4e49\u533a \u901a\u987a\u8def\u4e0e\u77f3\u56ed\u5927\u8857\u4ea4\u53e3 \u5317\u5411\u5357 \u3010\u516d\u73af\u5916\u3011", "aa": "6",  "Longitude": 116.658698, "Latitude": 40.112535}, {"name": "\u671d\u9633\u533a \u592a\u9633\u5bab\u4e2d\u8def\u4e0e\u592a\u9633\u5bab\u5317\u8857\u4ea4\u53e3 \u4e1c\u5411\u897f", "aa": "2",  "Longitude": 116.450299, "Latitude": 39.975141}, {"name": "\u5f00\u53d1\u533a \u79d1\u521b\u5341\u4e03\u8857\u4e0e\u7ecf\u60e0\u897f\u8def \u4e1c\u5411\u897f", "aa": "2",  "Longitude": 116.586923, "Latitude": 39.776327}, {"name": "\u3010\u516d\u73af\u5916\u3011\u901a\u987a\u8def\u674e\u5bb6\u6865\u6751\u8def\u53e3\u4e1c/\u5357/\u5317\uff08\u63a8\u6d4b\u53ea\u6709\u5357\u5317\uff09\u5357\u5317\u53cc\u5411", "aa": "6",  "Longitude": 116.667113, "Latitude": 40.042491}, {"name": "\u671d\u9633\u533a \u5b89\u6167\u5317\u91cc\u53e3 \u897f\u5411\u4e1c\u200b", "aa": "2",  "Longitude": 116.412436, "Latitude": 39.998863}, {"name": "\u4e30\u53f0\u533a \u5c0f\u5c6f\u8def\u5146\u4e30\u99a8\u56ed\u4eba\u884c\u706f \u5357\u5411\u5317", "aa": "2",  "Longitude": 116.253004, "Latitude": 39.892443}, {"name": "\u671d\u9633\u533a \u5173\u5e84\u8def\u5317\u5411\u5357 \u200b", "aa": "2",  "Longitude": 116.425071, "Latitude": 40.002601}, {"name": "\u5e73\u8c37\u533a \u590f\u8d24\u8def\u4e0e\u9a6c\u9b4f\u8def\u4ea4\u53e3\u5317 \u5317\u5411\u5357\u3010\u516d\u73af\u5916\u3011", "aa": "6",  "Longitude": 117.170742, "Latitude": 40.140296}, {"name": "\u5e73\u8c37\u533a \u91d1\u6d77\u897f\u8def\u4e0e\u80e1\u9760\u8def\u4ea4\u53e3\u5357 \u5357\u5411\u5317\u3010\u516d\u73af\u5916\u3011\u200b", "aa": "6",  "Longitude": 117.265912, "Latitude": 40.180575}, {"name": "\u987a\u4e49\u533a \u987a\u6c99\u8def\u4e0e\u524d\u666f\u8def\u4ea4\u53e3\u4e1c \u4e1c\u5411\u897f\u3010\u516d\u73af\u5916+\u987a\u4e49\u9ad8\u5cf0\u671f\u3011\u200b", "aa": "1",  "Longitude": 116.635034, "Latitude": 40.138447}, {"name": "\u5bc6\u4e91\u533a \u987a\u5bc6\u8def\u4e0e\u5174\u76db\u5357\u8def\u4ea4\u53e3\u5357 \u5357\u5411\u5317\u3010\u516d\u73af\u5916\u3011", "aa": "6",  "Longitude": 116.832779, "Latitude": 40.337667}, {"name": "\u987a\u4e49\u533a \u987a\u5bc6\u8def\u4e0e\u5de6\u5824\u8def\u8def\u53e3\u897f \u897f\u5411\u4e1c\u200b\u3010\u516d\u73af\u5916\u3011", "aa": "6",  "Longitude": 116.832481, "Latitude": 40.346971}, {"name": "\u671d\u9633\u533a \u5b89\u7fd4\u5317\u8def\u897f\u53e3\u81f3\u5b89\u7fd4\u5317\u8def\u4e1c\u53e3\u6bb50\u7c73 \u897f\u5411\u4e1c\u200b", "aa": "2",  "Longitude": 116.386641, "Latitude": 39.99422}, {"name": "\u660c\u5e73\u533a \u7acb\u6c64\u8def\u592a\u5e73\u5e84\u4e2d\u8857\u53e3\u5357 \u5357\u5411\u5317\u200b", "aa": "2",  "Longitude": 116.413243, "Latitude": 40.067468}, {"name": "\u5bc6\u4e91\u533a \u200b\u4eac\u627f\u9ad8\u901f59.9\u516c\u91cc\u8fdb\u4eac\u4e3b\u8def \u5317\u5411\u5357\u3010\u516d\u73af\u5916\u3011\u200b", "aa": "6",  "Longitude": 116.823167, "Latitude": 40.33982}, {"name": "\u660c\u5e73\u533a \u5b9a\u6cd7\u8def\u4e0e\u60e0\u6cfd\u4e1c\u8def\u76f8\u4ea4\u8def\u53e3\u897f \u897f\u5411\u4e1c\u200b", "aa": "2",  "Longitude": 116.407165, "Latitude": 40.115873}, {"name": "\u200b\u623f\u5c71\u533a \u74e6\u68a8\u8def\u5768\u5934\u6751\u53e3\u4e1c \u4e1c\u5411\u897f\u3010\u516d\u73af\u5916\u3011", "aa": "6",  "Longitude": 115.995463, "Latitude": 39.654521}, {"name": "\u987a\u4e49\u533a \u4e94\u4e2d\u8def\u53e3 \u5357\u5411\u5317\u200b", "aa": "6",  "Longitude": 116.658955, "Latitude": 40.11197}, {"name": "\u660c\u5e73\u533a \u5317\u822a\u53572\u95e8\u8def\u53e3 \u897f\u5411\u4e1c\u200b", "aa": "2",  "Longitude": 116.273644, "Latitude": 40.149786}, {"name": "\u4e30\u53f0\u533a \u53f3\u5b89\u95e8\u5916\u5927\u8857\u5f00\u9633\u91cc\u4e09\u8857\u897f\u53e3 \u5357\u5411\u5317", "aa": "2",  "Longitude": 116.364444, "Latitude": 39.86635}, {"name": "\u6d77\u6dc0\u533a \u91d1\u94a9\u6cb3\u5357\u8fc7\u8857\u6865\u5916\u73af\u4e3b\u8def \u5317\u5411\u5357\u200b", "aa": "2",  "Longitude": 116.274081, "Latitude": 39.913417}, {"name": "\u200b\u987a\u4e49\u533a \u53f3\u5824\u8def\u4e0e\u6cb3\u5357\u6751\u95f8\u6865\u8def\u4ea4\u53e3\u897f \u897f\u5411\u4e1c\u3010\u516d\u73af\u5916\u3011", "aa": "6",  "Longitude": 116.697076, "Latitude": 40.114085}, {"name": "\u987a\u4e49\u533a \u987a\u5bc6\u8def\u4e0e\u540e\u9c81\u5404\u5e84\u8def\u4ea4\u53e3\u5317 \u5317\u5411\u5357\u3010\u516d\u73af\u5916\u3011", "aa": "2",  "Longitude": 116.724361, "Latitude": 40.19053}, {"name": "\u987a\u4e49\u533a \u674e\u9b4f\u8def\u4e0e\u5ba3\u5e84\u6237\u5317\u8def\u4ea4\u53e3\u5357 \u5357\u5411\u5317\u3010\u516d\u73af\u5916\u3011", "aa": "6",  "Longitude": 116.756385, "Latitude": 40.125418}, {"name": "\u671d\u9633\u533a \u671d\u5185\u5c0f\u8857\u53e3\u4e1c \u4e1c\u5411\u897f \u8f85\u8def\u200b", "aa": "2",  "Longitude": 116.430436, "Latitude": 39.924584}, {"name": "\u901a\u5dde\u533a \u5f20\u91c7\u8def\u4e0e\u5f20\u6881\u8def\u4ea4\u53e3 \u5357\u5411\u5317", "aa": "2",  "Longitude": 116.703436, "Latitude": 39.847334}, {"name": "\u6d77\u6dc0\u533a \u56db\u6d77\u6865\u5317\u8fc7\u8857\u5929\u6865 \u5317\u5411\u5357 \u8f85\u8def\u200b", "aa": "2",  "Longitude": 116.279252, "Latitude": 39.97245}, {"name": "\u901a\u5dde\u533a \u901a\u71d5\u9ad8\u901f\u767d\u5e99\u8fdb\u4eac/\u901a\u71d5\u9ad8\u901f30.9\u516c\u91cc\uff0830.2km\uff09 \u4e1c\u897f\u53cc\u5411\u3010\u516d\u73af\u5916\u3011", "aa": "6",  "Longitude": 116.785381, "Latitude": 39.941205}, {"name": "\u6d77\u6dc0\u533a \u84dd\u975b\u5382\u5317\u8def\u706b\u5668\u8425\u6865\u5357 \u5317\u5411\u5357\u200b", "aa": "2",  "Longitude": 116.287215, "Latitude": 39.969443}, {"name": "\u77f3\u666f\u5c71\u533a \u9c81\u8c37\u5927\u8857\u4e0e\u9c81\u8c37\u8def\u4ea4\u53e3 \u5357\u5411\u5317\u200b", "aa": "2",  "Longitude": 116.22908, "Latitude": 39.904271}, {"name": "\u623f\u5c71\u533a \u71d5\u5c71\u516c\u56ed\u897f\u95e8\u5357 \u5357\u5411\u5317\u3010\u516d\u73af\u5916\u3011", "aa": "6",  "Longitude": 115.953802, "Latitude": 39.727555}, {"name": "\u660c\u5e73\u533a \u5357\u73af\u5357\u8def\u4e0e\u5174\u660c\u8def\u53e3\u5357 \u5357\u5411\u5317\u3010\u516d\u73af\u5916\u3011\u200b", "aa": "6",  "Longitude": 116.303526, "Latitude": 40.206831}, {"name": "\u4e30\u53f0\u533a \u5c45\u5b89\u8def\u4e0e\u5206\u767d\u8857\u4ea4\u53e3 \u5357\u5411\u5317\u200b", "aa": "2",  "Longitude": 116.448458, "Latitude": 39.862074}, {"name": "\u671d\u9633\u533a \u56db\u73af\u671b\u548c\u6865\u897f\u5c45\u7136\u4e4b\u5bb6\u8fc7\u8857\u5929\u6865 \u4e1c\u5411\u897f \u8f85\u8def\u200b", "aa": "2",  "Longitude": 116.438113, "Latitude": 39.989311}, {"name": "\u660c\u5e73\u533a \u9ad8\u6559\u56ed\u5357\u4e09\u8857\u4e0e\u5146\u4e30\u5bb6\u56ed\u8def\u53e3\u4e1c \u4e1c\u5411\u897f\u200b", "aa": "2",  "Longitude": 116.281676, "Latitude": 40.152249}, {"name": "\u660c\u5e73\u533a \u9ad8\u6559\u56ed\u5357\u4e8c\u8857\u4e0e\u5317\u6c99\u6cb3\u897f\u4e09\u8def\u8def\u53e3\u897f \u897f\u5411\u4e1c", "aa": "2",  "Longitude": 116.264446, "Latitude": 40.151334}, {"name": "\u660c\u5e73\u533a \u9ad8\u6559\u56ed\u5357\u4e8c\u8857\u4e0e\u5317\u6c99\u6cb3\u897f\u4e09\u8def\u8def\u53e3\u5317 \u5317\u5411\u5357", "aa": "2",  "Longitude": 116.26478, "Latitude": 40.151899}, {"name": "\u897f\u57ce\u533a \u9a6c\u8fde\u9053\u4e1c\u8857\u5317\u53e3\u884c\u4eba\u4e1c \u4e1c\u5411\u897f\u200b", "aa": "2",  "Longitude": 116.332923, "Latitude": 39.884627}, {"name": "\u5ef6\u5e86\u533a \u6ee6\u8d64\u8def\u4e0e\u5218\u5343\u8def\u4ea4\u53e3\u4e1c \u4e1c\u5411\u897f\u200b", "aa": "6",  "Longitude": 116.25062, "Latitude": 40.660327}, {"name": "\u77f3\u666f\u5c71\u533a \u79c0\u6c60\u5317\u8def\u4e0e\u79c0\u6c60\u897f\u8857\u4ea4\u53e3\uff08\u6599\u4ed3\u8def\u897f\u53e3\u81f3\u79c0\u6c60\u897f\u8857\u5317\u53e3\u6bb50\u7c73\uff09 \u4e1c\u5411\u897f\u200b", "aa": "2",  "Longitude": 116.151204, "Latitude": 39.921518}, {"name": "\u4e1c\u57ce\u533a \u5915\u7167\u5bfa\u8857\u8def\u53e3\u4e1c \u4e1c\u5411\u897f\u200b", "aa": "2",  "Longitude": 116.440784, "Latitude": 39.884474}, {"name": "\u4e30\u53f0\u533a \u9a6c\u8fde\u905323\u5c0f\u65f6\u4ff1\u4e50\u90e8\u897f \u897f\u5411\u4e1c\u200b", "aa": "2",  "Longitude": 116.328494, "Latitude": 39.88454}, {"name": "\u671d\u9633\u533a \u5b89\u8d1e\u8def\u4e0e\u5317\u571f\u57ce\u8def\u4ea4\u53e3 \u5357\u5411\u5317\u200b", "aa": "2",  "Longitude": 116.401809, "Latitude": 39.976429}, {"name": "\u660c\u5e73\u533a \u80b2\u77e5\u8def\u4e0e\u9f99\u79a7\u4e8c\u8857\u8def\u53e3 \u897f\u5411\u4e1c", "aa": "2",  "Longitude": 116.325498, "Latitude": 40.084732}, {"name": "\u671d\u9633\u533a \u65e5\u575b\u8def\u4e0e\u5149\u534e\u8def\u4ea4\u53e3\u5317\u4fa7 \u5317\u5411\u5357\u200b", "aa": "2",  "Longitude": 116.441031, "Latitude": 39.91358}, {"name": "\u4e30\u53f0\u533a \u6d77\u6237\u8def\u4e0e\u4e30\u6d77\u8857\u4ea4\u53e3\u5357 \u5357\u5411\u5317\u200b", "aa": "2",  "Longitude": 116.394432, "Latitude": 39.850845}, {"name": "\u660c\u5e73\u533a \u80b2\u77e5\u8def\u4e0e\u9f99\u79a7\u4e8c\u8857\u8def\u53e3 \u4e1c\u5411\u897f\u200b", "aa": "2",  "Longitude": 116.326812, "Latitude": 40.084894}, {"name": "\u77f3\u666f\u5c71\u533a \u52a8\u529b\u4e1c\u8857\u4e0e\u4e94\u4e00\u5267\u573a\u8def\u4ea4\u53e3\uff08\u4e94\u4e00\u5267\u573a\u8def\u4e1c\u53e3\u81f3\u4e94\u4e00\u5267\u573a\u8def\u897f\u53e325\u7c73\uff09 \u4e1c\u5411\u897f\u200b", "aa": "2",  "Longitude": 116.154539, "Latitude": 39.917756}, {"name": "\u77f3\u666f\u5c71\u533a \u52a8\u529b\u4e1c\u8857\u4e0e\u4e94\u4e00\u5267\u573a\u5357\u8def\u4ea4\u53e3\uff08\u4e94\u4e00\u5267\u573a\u5357\u8def\u4e1c\u53e3\u81f3\u4e94\u4e00\u5267\u573a\u5357\u8def\u897f\u53e3\u6bb5\uff09 \u4e1c\u5411\u897f\u200b", "aa": "2",  "Longitude": 116.155136, "Latitude": 39.916021}, {"name": "\u6d77\u6dc0\u533a \u8f66\u516c\u5e84\u897f\u8def\u9996\u4f53\u5357\u8def\u4e2d\u53e3\u4e1c \u4e1c\u5411\u897f\u200b", "aa": "2",  "Longitude": 116.326854, "Latitude": 39.932443}, {"name": "\u901a\u5dde\u533a \u8349\u5bfa\u6751\u53e3\u5317 \u5317\u5411\u5357\u200b", "aa": "2",  "Longitude": 116.677816, "Latitude": 39.989113}, {"name": "\u5ef6\u5e86\u533a \u4e00\u5c0f\u897f\u53e3\u81f3\u5317\u5173\u5317\u53e3\u6bb5 \u5317\u5411\u5357\u200b", "aa": "2",  "Longitude": 115.969757, "Latitude": 40.462425}, {"name": "\u5927\u5174\u533a \u5357\u5927\u7ea2\u95e8\u8def\u5357\u5c0f\u8857\u8def\u53e3\u5317 \u5357\u5411\u5317\u200b", "aa": "2",  "Longitude": 116.42106, "Latitude": 39.787485}, {"name": "\u623f\u5c71\u533a \u661f\u5149\u8def\u4e0e\u6708\u534e\u5927\u8857\u8def\u53e3 \u897f\u5411\u4e1c\u200b", "aa": "2",  "Longitude": 116.114517, "Latitude": 39.725754}, {"name": "\u623f\u5c71\u533a \u51ef\u65cb\u5927\u8857\u68c0\u8f66\u573a\u5317 \u5357\u5411\u5317\u200b", "aa": "2",  "Longitude": 116.130539, "Latitude": 39.713523}, {"name": "\u901a\u5dde\u533a \u6843\u82b1\u5c9b\u5c0f\u533a\u8def\u53e3\u5357 \u5357\u5411\u5317", "aa": "2",  "Longitude": 116.657498, "Latitude": 39.866102}, {"name": "\u671d\u9633\u533a \u5341\u516b\u91cc\u5e97\u5317\u6865\u5317\u8fc7\u8857\u6865\u5185\u73af\u4e3b\u8def \u5317\u5411\u5357", "aa": "2",  "Longitude": 116.485757, "Latitude": 39.852171}, {"name": "\u200b\u4e1c\u57ce\u533a \u91d1\u5b9d\u8857\u5317\u603b\u5e03\u80e1\u540c\u4e1c\u53e3 \u4e1c\u5411\u897f", "aa": "2",  "Longitude": 116.431808, "Latitude": 39.915645}, {"name": "\u671d\u9633\u533a \u5b89\u7acb\u8def\u53cc\u8425\u8def\u897f\u53e3\u5317 \u5357\u5411\u5317 \uff08\u4e3b\u8def\uff09\u200b", "aa": "2",  "Longitude": 116.411466, "Latitude": 40.038031}, {"name": "\u897f\u57ce\u533a \u961c\u6210\u8def \u897f\u5411\u4e1c\u200b \u8f85\u8def", "aa": "2",  "Longitude": 116.320886, "Latitude": 39.92351}, {"name": "\u4e30\u53f0\u533a \u897f\u5c40\u4e1c\u8857\u897f\u53e3 \u5357\u5411\u5317\u200b", "aa": "2",  "Longitude": 116.311648, "Latitude": 39.877195}, {"name": "\u671d\u9633\u533a \u56db\u5143\u897f\u6865\u897f\u8fc7\u8857\u5929\u6865 \u4e1c\u5411\u897f \u8f85\u8def", "aa": "2",  "Longitude": 116.459738, "Latitude": 39.978016}, {"name": "\u660c\u5e73\u533a G6\u8f85\u8def\u4e0e\u767e\u6c99\u8def\u4ea4\u53e3 \u5357\u5411\u5317\u200b", "aa": "2",  "Longitude": 116.262532, "Latitude": 40.141704}, {"name": "\u671d\u9633\u533a \u6a31\u82b1\u56ed\u4e1c\u8857\u5efa\u5b89\u4e1c\u8def\u53e3 \u4e1c\u5411\u897f\u200b", "aa": "2",  "Longitude": 116.425048, "Latitude": 39.975495}, {"name": "\u660c\u5e73\u533a \u767d\u5e99\u8def\u4e0e\u6d77\u767d\u8def\u8def\u53e3\u897f \u897f\u5411\u4e1c\u200b", "aa": "2",  "Longitude": 116.391152, "Latitude": 40.109786}, {"name": "\u987a\u4e49\u533a \u4eac\u627f\u9ad8\u901f36.7\u516c\u91cc\u51fa\u4eac\u4e3b\u8def \u53cc\u5411\u3010\u516d\u73af\u5916\u3011", "aa": "6",  "Longitude": 116.594328, "Latitude": 40.264657}, {"name": "\u660c\u5e73\u533a \u9ad8\u6559\u56ed\u5357\u4e09\u8857\u4e0e\u5317\u6c99\u6cb3\u897f\u4e09\u8def\u8def\u53e3\u4e1c \u4e1c\u5411\u897f\u200b", "aa": "2",  "Longitude": 116.267668, "Latitude": 40.148348}, {"name": "\u660c\u5e73\u533a \u9ad8\u6559\u56ed\u4e2d\u8857\u4e0e\u5317\u6c99\u6cb3\u897f\u4e09\u8def\u8def\u53e3\u5357 \u5357\u5411\u5317", "aa": "2",  "Longitude": 116.263096, "Latitude": 40.155622}, {"name": "\u660c\u5e73\u533a \u9ad8\u6559\u56ed\u4e2d\u8857\u4e0e\u5317\u6c99\u6cb3\u897f\u4e09\u8def\u8def\u53e3\u5317 \u5317\u5411\u5357", "aa": "2",  "Longitude": 116.262324, "Latitude": 40.156754}, {"name": "\u5927\u5174\u533a \u6d77\u946b\u8def\u5357\u4e2d\u8f74\u8def\u4ea4\u53e3 \u4e1c\u5411\u897f\u3010\u516d\u73af\u5916\u3011\u200b", "aa": "6",  "Longitude": 116.409597, "Latitude": 39.709854}, {"name": "\u660c\u5e73\u533a \u5317\u822a\u53572\u95e8\u8def\u53e3\u4e1c \u4e1c\u5411\u897f", "aa": "2",  "Longitude": 116.275267, "Latitude": 40.150377}, {"name": "\u660c\u5e73\u533a \u9ad8\u6559\u56ed\u5357\u4e09\u8857\u4e0e\u5317\u6c99\u6cb3\u897f\u4e09\u8def\u8def\u53e3\u5357 \u5357\u5411\u5317", "aa": "2",  "Longitude": 116.267172, "Latitude": 40.147839}, {"name": "\u660c\u5e73\u533a \u9ad8\u6559\u56ed\u5357\u4e09\u8857\u4e0e\u5317\u6c99\u6cb3\u897f\u4e09\u8def\u8def\u53e3\u5317 \u5317\u5411\u5357", "aa": "2",  "Longitude": 116.266588, "Latitude": 40.148497}, {"name": "\u660c\u5e73\u533a \u200b\u4eac\u85cf\u9ad8\u901f30.15\u516c\u91cc \u51fa\u4eac \u5357\u5411\u5317\u3010\u516d\u73af\u5916\u3011\u200b", "aa": "6",  "Longitude": 116.221366, "Latitude": 40.21536}, {"name": "\u987a\u4e49\u57ce\u533a \u901a\u987a\u8def\u4e0e\u590d\u5174\u4e1c\u8857\u4ea4\u53e3\u5317\u4fa7\u8def\u6bb5 \u5357\u5317\u53cc\u5411\u3010\u987a\u4e49\u9ad8\u5cf0\u671f\u3011", "aa": "1",  "Longitude": 116.656912, "Latitude": 40.150075}, {"name": "\u897f\u57ce\u533a \u53f3\u5b89\u95e8\u897f\u6ee8\u6cb3\u8def\u9996\u533b\u5927\u5317\u4e00\u95e8\u897f \u897f\u5411\u4e1c\u200b", "aa": "2",  "Longitude": 116.35265, "Latitude": 39.867924}, {"name": "\u671d\u9633\u533a \u5de5\u5927\u6865\u5317 \u5357\u5411\u5317 \u8f85\u8def\u200b", "aa": "2",  "Longitude": 116.489923, "Latitude": 39.876611}, {"name": "\u6d77\u6dc0\u533a \u4eac\u85cf\u9ad8\u901f\u8f85\u8def\u5c0f\u8425\u6865\u5357 \u5357\u5411\u5317\u200b", "aa": "2",  "Longitude": 116.342298, "Latitude": 40.038101}, {"name": "\u671d\u9633\u533a \u4eac\u5bc6\u8def\u5b59\u6cb3\u8def\u53e3\u5317 \u5317\u5411\u5357\u200b", "aa": "2",  "Longitude": 116.534022, "Latitude": 40.04308}, {"name": "\u5bc6\u4e91\u533a \u4eac\u627f\u9ad8\u901f69.8\u516c\u91cc \u5317\u5411\u5357\u3010\u516d\u73af\u5916\u3011", "aa": "6",  "Longitude": 116.910314, "Latitude": 40.392603}, {"name": "\u660c\u5e73\u533a \u200b\u4eac\u85cf\u9ad8\u901f45.05\u516c\u91cc\u51fa\u4eac \u5357\u5411\u5317\u3010\u516d\u73af\u5916\u3011\u200b", "aa": "6",  "Longitude": 116.083139, "Latitude": 40.281439}, {"name": "\u671d\u9633\u533a \u5c0f\u7ea2\u95e8\u6865\u4e1c\u8fc7\u8857\u6865 \u897f\u5411\u4e1c \u8f85\u8def", "aa": "2",  "Longitude": 116.462921, "Latitude": 39.833547}, {"name": "\u987a\u4e49\u57ce\u533a \u5e9c\u524d\u8857\u4e0e\u4e1c\u5b89\u8def\u4ea4\u53e3\u4e1c\u4fa7\u8def \u4e1c\u897f\u53cc\u5411\u3010\u987a\u4e49\u57ce\u533a\u9ad8\u5cf0\u671f\u3011\u200b", "aa": "1",  "Longitude": 116.65997, "Latitude": 40.1299}, {"name": "\u200b\u987a\u4e49\u533a \u660c\u91d1\u8def\u4e0e\u6c34\u8272\u65f6\u5149\u897f\u4ea4\u53e3\u897f \u897f\u5411\u4e1c\u3010\u516d\u73af\u5916\u3011", "aa": "6",  "Longitude": 116.723415, "Latitude": 40.212914}, {"name": "\u6d77\u6dc0\u533a \u4e09\u73af\u8def\u8f85\u8def\u8054\u60f3\u6865 \u897f\u5411\u4e1c\u200b", "aa": "2",  "Longitude": 116.333689, "Latitude": 39.967335}, {"name": "\u77f3\u666f\u5c71\u8def\u516b\u5b9d\u5c71\u8def\u53e3 \u5317\u5411\u5357 \u4e3b\u8def+\u8f85\u8def", "aa": "2",  "Longitude": 116.235677, "Latitude": 39.906529}, {"name": "\u671d\u9633\u533a \u4eae\u9a6c\u6865\u8def\u9ea6\u5b50\u5e97\u5317\u53e3 \u897f\u5411\u4e1c", "aa": "2",  "Longitude": 116.467977, "Latitude": 39.951201}, {"name": "\u4e30\u53f0\u533a \u53f3\u5b89\u95e8\u6865\u897f\u9f99\u95e8\u5916\u73af \u897f\u5411\u4e1c\u3010\u4e8c\u73af\u4e3b\u8def\u3011\u200b", "aa": "2",  "Longitude": 116.357675, "Latitude": 39.86833}, {"name": "\u5f00\u53d1\u533a \u5317\u73af\u897f\u8def\u4e0e\u79d1\u6167\u5927\u9053\u4ea4\u53e3 \u897f\u5411\u4e1c\u200b", "aa": "2",  "Longitude": 116.485061, "Latitude": 39.801005}, {"name": "\u5f00\u53d1\u533a \u79d1\u521b\u4e03\u8857\u4e0e\u7ecf\u6d77\u4e8c\u8def\u4ea4\u53e3 \u5317\u5411\u5357\u200b", "aa": "2",  "Longitude": 116.537495, "Latitude": 39.798049}, {"name": "\u200b\u660c\u5e73\u533a \u987a\u6c99\u8def\u4e0e\u6c64\u5c1a\u8def\u8def\u53e3 \u4e1c\u5411\u897f\u3010\u516d\u73af\u5916\u3011", "aa": "6",  "Longitude": 116.387734, "Latitude": 40.175889}, {"name": "\u4e1c\u57ce\u533a \u200b\u5b89\u5b9a\u95e8\u6865\u897f \u4e1c\u5411\u897f", "aa": "2",  "Longitude": 116.405222, "Latitude": 39.949085}, {"name": "\u77f3\u666f\u5c71\u533a \u52a8\u529b\u4e1c\u8857\u5357\u53e325\u7c73 \u5317\u5411\u5357\u200b", "aa": "2",  "Longitude": 116.154881, "Latitude": 39.914998}, {"name": "\u5927\u5174\u533a \u4e1c\u5927\u8def\u4e0e\u5174\u4e1c\u8def\u4ea4\u53e3\u5317 \u5317\u5411\u5357\u3010\u516d\u73af\u5916\u3011", "aa": "6",  "Longitude": 116.382915, "Latitude": 39.666022}, {"name": "\u5e73\u8c37\u533a \u200b\u80e1\u718a\u8def\u4e0e\u718a\u5357\u8def\u4ea4\u53e3\u4e1c \u4e1c\u5411\u897f\u3010\u516d\u73af\u5916\u3011\u200b\u200b", "aa": "6",  "Longitude": 117.120787, "Latitude": 40.282055}, {"name": "\u660c\u5e73\u533a \u6c34\u5357\u8def\u4e0e\u89c4\u5212\u4e00\u8def\u4ea4\u53e3\u4e1c \u4e1c\u5411\u897f\u200b\u3010\u516d\u73af\u5916\u3011", "aa": "6",  "Longitude": 116.061998, "Latitude": 40.197305}, {"name": "\u77f3\u666f\u5c71\u533a \u96d5\u5851\u56ed\u4e2d\u8857\u5357\u53e3 \u5357\u5411\u5317", "aa": "2",  "Longitude": 116.243103, "Latitude": 39.904066}, {"name": "\u671d\u9633\u533a \u5b89\u7acb\u8def\u7ea2\u519b\u8425\u5357\u8def\u897f\u53e3 \u5317\u5411\u5357 \u4e3b\u8def\u200b", "aa": "2",  "Longitude": 116.410428, "Latitude": 40.033161}, {"name": "\u671d\u9633\u533a \u5317\u8fb0\u897f\u6865\u5317\u9f99\u95e8 \u8fdb\u4eac\u51fa\u53cc\u5411\uff08\u5357\u5317\u53cc\u5411\uff09", "aa": "2",  "Longitude": 116.387333, "Latitude": 39.991854}, {"name": "\u5f00\u53d1\u533a \u535a\u5174\u516d\u8def\u4e0e\u5174\u6d77\u8def \u65b9\u5411\u7b49\u786e\u8ba4", "aa": "2",  "Longitude": 116.502817, "Latitude": 39.75072}, {"name": "\u660c\u5e73\u533a \u4eac\u85cf\u9ad8\u901f55.8\u516c\u91cc\u8fdb\u4eac \u8fdb\u4eac\u65b9\u5411\u200b\u3010\u516d\u73af\u5916\u3011", "aa": "6",  "Longitude": 116.014561, "Latitude": 40.320847}, {"name": "\u77f3\u666f\u5c71\u533a \u9c81\u8c37\u5927\u8857\u4e0e\u5f20\u4eea\u6751\u8def\u4ea4\u53e3 \u5357\u5411\u5317", "aa": "2",  "Longitude": 116.232969, "Latitude": 39.890128}, {"name": "\u671d\u9633\u533a \u4e09\u73af\u4e3b\u8def\u4e09\u5143\u6865\u516c\u4ea4\u6e2f\u6e7e \u5317\u5411\u5357\u200b", "aa": "2",  "Longitude": 116.456424, "Latitude": 39.956377}, {"name": "\u95e8\u5934\u6c9f \u77f3\u95e8\u8def\u4e09\u5bb6\u5e97\u4e1c\u53e3 \u4e1c\u5411\u897f \u4e3b\u8def+\u8f85\u8def", "aa": "2",  "Longitude": 116.117016, "Latitude": 39.959859}, {"name": "\u95e8\u5934\u6c9f\u533a \u77f3\u95e8\u8def\u4e09\u5bb6\u5e97\u4e1c\u53e3 \u897f\u5411\u4e1c \u4e3b\u8def+\u8f85\u8def", "aa": "2",  "Longitude": 116.116835, "Latitude": 39.959823}, {"name": "\u5f00\u53d1\u533a \u5929\u5b9d\u5317\u8857\u4e0e\u79d1\u6167\u5927\u9053\u4ea4\u53e3 \u4e1c\u5411\u897f", "aa": "2",  "Longitude": 116.489698, "Latitude": 39.796337}, {"name": "\u4e30\u53f0\u533a \u9a6c\u5bb6\u697c\u6865\u4e1c \u897f\u5411\u4e1c\uff08\u56db\u73af\u8f85\u8def\uff09", "aa": "2",  "Longitude": 116.35228, "Latitude": 39.830842}, {"name": "\u5ef6\u5e86\u533a G6\u8f85\u8def\u4e0e\u53e4\u957f\u57ce\u897f\u53e3\u4ea4\u53e3\u897f\u3010\u516d\u73af\u5916\u3011\u200b", "aa": "2",  "Longitude": 115.970705, "Latitude": 40.356037}, {"name": "\u987a\u4e49\u533a \u987a\u5eb7\u8def\u4e0e\u987a\u5e73\u8def\u4ea4\u53e3 \u5357\u5411\u5317\u200b\u3010\u516d\u73af\u5916\u3011", "aa": "6",  "Longitude": 116.674308, "Latitude": 40.115286}, {"name": "\u660c\u5e73\u533a \u7acb\u6c64\u8def\u57ce\u94c1\u5929\u901a\u82d1\u5317\u7ad9\u53e3\u5317 \u5357\u5411\u5317\u200b", "aa": "2",  "Longitude": 116.41409, "Latitude": 40.085998}, {"name": "\u660c\u5e73\u533a \u4eac\u85cf\u9ad8\u901f23.2\u51fa\u4eac \u8fdb\u51fa\u4eac\u53cc\u5411", "aa": "2",  "Longitude": 116.255769, "Latitude": 40.149167}, {"name": "\u671d\u9633\u533a \u901a\u5b5a\u7965\u51ef\u8fea\u62c9\u514b4s\u5e97\u897f\u4fa7\u8def\u53e3\u897f \u4e1c\u5411\u897f\u200b", "aa": "2",  "Longitude": 116.558695, "Latitude": 39.941257}, {"name": "\u5f00\u53d1\u533a \u65b0\u51e4\u6cb3\u8def\u4e0e\u535a\u5174\u4e8c\u8def\u4ea4\u53e3 \u897f\u5411\u4e1c", "aa": "2",  "Longitude": 116.521824, "Latitude": 39.742827}, {"name": "\u671d\u9633\u533a \u4e1c\u98ce\u6865\u5357\u8fc7\u8857\u5929\u6865 \u5317\u5411\u5357 \u8f85\u8def\u200b", "aa": "2",  "Longitude": 116.489557, "Latitude": 39.949581}, {"name": "\u5f00\u53d1\u533a \u6cf0\u6cb3\u4e00\u8857\u4e0e\u535a\u5174\u4e00\u8def\u4ea4\u53e3 \u4e1c\u5411\u897f", "aa": "2",  "Longitude": 116.529027, "Latitude": 39.753149}, {"name": "\u671d\u9633\u533a \u56db\u73af\u56db\u5143\u897f\u6865 \u897f\u5411\u4e1c \u8f85\u8def\u200b", "aa": "2",  "Longitude": 116.463286, "Latitude": 39.975081}, {"name": "\u5f00\u53d1\u533a \u6cf0\u6cb3\u8def\u4e0e\u535a\u5174\u4e09\u8def\u4ea4\u53e3 \u5317\u5411\u5357\u200b", "aa": "2",  "Longitude": 116.523062, "Latitude": 39.758789}, {"name": "\u671d\u9633\u533a \u56db\u73af\u56db\u5143\u897f\u6865\u897f\u8fc7\u8857\u5929\u6865 \u65b9\u5411\u8857\u786e\u8ba4\u200b", "aa": "2",  "Longitude": 116.459543, "Latitude": 39.977838}, {"name": "\u5927\u5174\u533a \u6d77\u946b\u5317\u8def\u4e0e\u961c\u987a\u5357\u8def\u4ea4\u53e3\u897f \u897f\u5411\u4e1c\u200b\u3010\u516d\u73af\u5916\u3011", "aa": "6",  "Longitude": 116.42059, "Latitude": 39.717313}, {"name": "\u200b\u671d\u9633\u533a \u5c0f\u7ea2\u95e8\u6865\u4e1c\u8fc7\u8857\u6865 \u4e1c\u5411\u897f \u8f85\u8def", "aa": "2",  "Longitude": 116.46276, "Latitude": 39.834035}, {"name": "\u5f00\u53d1\u533a \u5929\u5b9d\u5317\u8857\u4e0e\u79d1\u6167\u5927\u9053 \u897f\u5411\u4e1c", "aa": "2",  "Longitude": 116.488995, "Latitude": 39.796193}, {"name": "\u5f00\u53d1\u533a \u79d1\u521b\u516b\u8857\u4e0e\u7ecf\u6d77\u4e00\u8def\u4ea4\u53e3 \u5317\u5411\u5357\u200b", "aa": "2",  "Longitude": 116.53649, "Latitude": 39.793774}, {"name": "\u5f00\u53d1\u533a \u5317\u73af\u897f\u8def\u4e0e\u79d1\u6167\u5927\u9053\u4ea4\u53e3\u200b \u5357\u5411\u5317", "aa": "2",  "Longitude": 116.485998, "Latitude": 39.800639}, {"name": "\u987a\u4e49\u533a \u987a\u5eb7\u8def\u4e0e\u77f3\u56ed\u5927\u8857\u4ea4\u53e3\u5361\u53e3 \u5357\u5411\u5317\u200b\u3010\u516d\u73af\u5916\u3011", "aa": "6",  "Longitude": 116.67429, "Latitude": 40.111641}, {"name": "\u671d\u9633\u533a \u671d\u5916\u5e02\u573a\u8857\u4e0e\u671d\u5916\u5357\u8857\u4ea4\u53e3 \u5317\u5411\u5357\u200b", "aa": "2",  "Longitude": 116.440713, "Latitude": 39.922815}, {"name": "\u5f00\u53d1\u533a \u5174\u4e1a\u8857\u4e0e\u4e1c\u73af\u5357\u8def\u4ea4\u53e3 \u5317\u5411\u5357", "aa": "2",  "Longitude": 116.549009, "Latitude": 39.773197}, {"name": "\u5f00\u53d1\u533a \u5174\u4e1a\u8857\u4e0e\u4e1c\u73af\u5357\u8def\u4ea4\u53e3 \u5357\u5411\u5317", "aa": "2",  "Longitude": 116.549466, "Latitude": 39.772786}, {"name": "\u5f00\u53d1\u533a \u79d1\u521b\u4e03\u8857\u4e0e\u7ecf\u6d77\u4e8c\u8def\u4ea4\u53e3 \u897f\u5411\u4e1c", "aa": "2",  "Longitude": 116.537429, "Latitude": 39.797581}, {"name": "\u5f00\u53d1\u533a \u79d1\u521b\u4e03\u8857\u4e0e\u7ecf\u6d77\u4e8c\u8def\u4ea4\u53e3 \u4e1c\u5411\u897f", "aa": "2",  "Longitude": 116.538187, "Latitude": 39.798049}, {"name": "\u5f00\u53d1\u533a \u79d1\u521b\u4e5d\u8857\u4e0e\u7ecf\u6d77\u56db\u8def\u4ea4\u53e3 \u5317\u5411\u5357\u200b", "aa": "2",  "Longitude": 116.551434, "Latitude": 39.791888}, {"name": "\u5f00\u53d1\u533a \u79d1\u521b\u516b\u8857\u4e0e\u7ecf\u6d77\u4e00\u8def \u5357\u5411\u5317\u200b", "aa": "2",  "Longitude": 116.53739, "Latitude": 39.793017}, {"name": "\u5f00\u53d1\u533a \u51c9\u6c34\u6cb3\u4e8c\u8857\u4e0e\u535a\u5174\u516d\u8def \u5357\u5411\u5317", "aa": "2",  "Longitude": 116.508873, "Latitude": 39.764669}, {"name": "\u671d\u9633\u533a \u9752\u5e74\u6c9f\u8def\u4e2d\u53e3\u5357 \u5357\u5411\u5317\u200b", "aa": "2",  "Longitude": 116.418396, "Latitude": 39.961678}, {"name": "\u5ef6\u5e86\u533a \u5c0f\u5e84\u79d1\u8def\u53e3\u5357 \u5357\u5411\u5317\u3010\u516d\u73af\u5916\u3011\u200b\u200b", "aa": "6",  "Longitude": 116.099381, "Latitude": 40.494555}, {"name": "\u671d\u9633\u533a \u4eae\u9a6c\u6865\u9ea6\u5b50\u5e97\u8857\u5317\u53e3\u897f \u4e1c\u5411\u897f\u200b", "aa": "2",  "Longitude": 116.466541, "Latitude": 39.950855}, {"name": "\u5ef6\u5e86\u533a \u5eb7\u519c\u8def\u8def\u53e3\u5357 \u5357\u5411\u5317\u3010\u516d\u73af\u5916\u3011", "aa": "6",  "Longitude": 115.910635, "Latitude": 40.384768}, {"name": "\u5927\u5174\u533a \u6c38\u5174\u6cb3\u5317\u8def\u4e0eG106\u56fd\u9053\u4ea4\u53e3 \u4e1c\u5411\u897f\u200b\u3010\u516d\u73af\u5916\u3011", "aa": "6",  "Longitude": 116.325926, "Latitude": 39.530716}, {"name": "\u623f\u5c71\u533a \u987a\u516b\u8def\u4e0e\u4eac\u5468\u8def\u4ea4\u53e3 \u5357\u5411\u5317\u200b\u3010\u516d\u73af\u5916\u3011", "aa": "6",  "Longitude": 116.015182, "Latitude": 39.704163}, {"name": "\u65b0\u589e\uff1a\u6000\u803f\u8def\u4e0e\u82d7\u5703\u8def\u4ea4\u53e3\u897f \u897f\u5411\u4e1c\u3010\u516d\u73af\u5916\u3011\u200b", "aa": "6",  "Longitude": 116.712136, "Latitude": 40.287591}, {"name": "\u77f3\u666f\u5c71\u533a \u9c81\u8c37\u5927\u8857\u4e0e\u9c81\u8c37\u8def\u4ea4\u53e3 \u897f\u5411\u4e1c\u200b", "aa": "2",  "Longitude": 116.229917, "Latitude": 39.903798}, {"name": "\u671d\u9633\u533a \u4ef0\u5c71\u8def\u4e0e\u5b89\u7acb\u8def\u4ea4\u53e3 \u897f\u5411\u4e1c", "aa": "2",  "Longitude": 116.410103, "Latitude": 40.02693}, {"name": "\u6000\u67d4\u533a \u6768\u96c1\u4e1c\u4e00\u8def\u4e0e\u4eac\u5bc6\u5317\u4e09\u8857\u4ea4\u53e3\u5357 \u5357\u5411\u5317\u3010\u516d\u73af\u5916\u3011", "aa": "6",  "Longitude": 116.689172, "Latitude": 40.335426}, {"name": "\u623f\u5c71\u533a \u767e\u5408\u8def\u4e0e\u7eff\u56ed\u8def\u4ea4\u53e3 \u5317\u5411\u5357\u3010\u516d\u73af\u5916\u3011\u200b\u200b", "aa": "6",  "Longitude": 116.077281, "Latitude": 39.713088}, {"name": "\u4e1c\u57ce\u533a \u5939\u4ed3\u9053\u5357\u6bb5\u8def\u4e1c\u4fa7 \u5357\u5411\u5317", "aa": "2",  "Longitude": 116.431892, "Latitude": 39.934987}, {"name": "\u6d77\u6dc0\u533a \u91d1\u9685\u745e\u548c\u56ed\u5c0f\u533a\u5357\u95e8\u4e1c \u4e1c\u5411\u897f\u200b", "aa": "2",  "Longitude": 116.234371, "Latitude": 39.919695}, {"name": "\u660c\u5e73\u533a \u56de\u5357\u5317\u8def\u4e0e\u6587\u534e\u897f\u8def\u8def\u53e3 \u5357\u5411\u5317\u200b", "aa": "2",  "Longitude": 116.337218, "Latitude": 40.088674}, {"name": "\u5e73\u8c37\u533a \u9646\u6e2f\u5927\u8857\u4e0e\u9646\u6e2f\u8def\u4ea4\u53e3\u4e1c \u4e1c\u5411\u897f\u3010\u516d\u73af\u5916\u3011", "aa": "6",  "Longitude": 117.017218, "Latitude": 40.086241}, {"name": "\u200b\u671d\u9633\u533a \u5b89\u7acb\u8def\u4e0e\u4ef0\u5c71\u8def\u4ea4\u53e3 \u5317\u5411\u5357\uff08\u8f85\u8def\uff09", "aa": "2",  "Longitude": 116.409122, "Latitude": 40.026579}, {"name": "\u4e30\u53f0\u533a \u6653\u6708\u897f\u8def\u5b89\u548c\u8857\u4ea4\u53e3\u5317 \u5317\u5411\u5357\u200b", "aa": "2",  "Longitude": 116.240859, "Latitude": 39.833097}, {"name": "\u77f3\u666f\u5c71\u533a \u516b\u89d2\u4e1c\u8857\u4e0e\u516b\u89d2\u8def\u4ea4\u53e3 \u5357\u5411\u5317", "aa": "2",  "Longitude": 116.206663, "Latitude": 39.913934}, {"name": "\u77f3\u666f\u5c71\u533a \u96d5\u5851\u56ed\u4e2d\u8857\u5357\u53e3 \u5317\u5411\u5357\u200b", "aa": "2",  "Longitude": 116.242915, "Latitude": 39.903531}, {"name": "\u4e30\u53f0\u533a \u516d\u8425\u95e8\u5357 \u5317\u5411\u5357\u200b", "aa": "2",  "Longitude": 116.419733, "Latitude": 39.79319}, {"name": "\u6d77\u6dc0\u533a \u6c38\u6cf0\u5e84\u5317\u8def\u4e1c\u53e3 \u5357\u5411\u5317\u200b", "aa": "2",  "Longitude": 116.370282, "Latitude": 40.040049}, {"name": "\u77f3\u666f\u5c71\u533a \u516b\u89d2\u4e1c\u8857\u4e0e\u516b\u89d2\u8def\u4ea4\u53e3 \u5317\u5411\u5357", "aa": "2",  "Longitude": 116.206546, "Latitude": 39.913511}, {"name": "\u623f\u5c71\u533a \u516b\u5341\u4ea9\u5730\u8def\u53e3\u897f \u897f\u5411\u4e1c\u3010\u516d\u73af\u5916\u3011\u200b", "aa": "6",  "Longitude": 116.013773, "Latitude": 39.757732}, {"name": "\u6d77\u6dc0\u533a \u6c38\u6cf0\u5e84\u5317\u8def\u4e1c\u53e3 \u4e1c\u5411\u897f", "aa": "2",  "Longitude": 116.370396, "Latitude": 40.040817}, {"name": "\u6d77\u6dc0\u533a \u53a2\u9ec4\u65d7\u8def\u5357\u53e3 \u897f\u5411\u4e1c", "aa": "2",  "Longitude": 116.292715, "Latitude": 40.023839}, {"name": "\u6d77\u6dc0\u533a \u53a2\u9ec4\u65d7\u8def\u5357\u53e3 \u4e1c\u5411\u897f", "aa": "2",  "Longitude": 116.293618, "Latitude": 40.024047}, {"name": "\u987a\u4e49\u57ce\u533a \u4fbf\u6c11\u8857\u897f\u53e3 \u5357\u5411\u5317 \u3010\u987a\u4e49\u57ce\u533a\u9ad8\u5cf0\u671f+\u516d\u73af\u5916\u3011", "aa": "1",  "Longitude": 116.651329, "Latitude": 40.134045}, {"name": "\u4e30\u53f0\u533a \u5927\u74e6\u7a91\u6865\u4e1c\u5357G4\u8f85\u8def \u5357\u5411\u5317", "aa": "2",  "Longitude": 116.241179, "Latitude": 39.856375}, {"name": "\u4e30\u53f0\u533a \u516d\u8425\u95e8\u5357 \u5357\u5411\u5317", "aa": "2",  "Longitude": 116.4201, "Latitude": 39.79251}, {"name": "\u660c\u5e73\u533a \u7acb\u6c64\u8def\u4e0e\u592a\u5e73\u5e84\u4e2d\u8857\u4ea4\u53e3 \u5317\u5411\u5357", "aa": "2",  "Longitude": 116.412916, "Latitude": 40.067485}, {"name": "\u660c\u5e73\u533a \u7acb\u6c64\u8def\u4e0e\u592a\u5e73\u5e84\u4e2d\u8857\u4ea4\u53e3 \u5357\u5411\u5317", "aa": "2",  "Longitude": 116.413143, "Latitude": 40.068451}, {"name": "\u897f\u57ce\u533a \u5357\u793c\u58eb\u8def\u5357\u53e3 \u897f\u5411\u4e1c", "aa": "2",  "Longitude": 116.352864, "Latitude": 39.907155}, {"name": "\u897f\u57ce\u533a \u65b0\u6587\u5316\u8857\u897f\u53e3\u5317 \u5317\u5411\u5357\u200b", "aa": "2",  "Longitude": 116.363239, "Latitude": 39.904138}, {"name": "\u897f\u57ce\u533a \u6559\u5b50\u80e1\u540c\u5357\u53e3\u5317 \u5317\u5411\u5357", "aa": "2",  "Longitude": 116.367133, "Latitude": 39.883559}, {"name": "\u897f\u57ce\u533a \u5357\u6a2a\u4e1c\u8857\u897f\u53e3\u5357 \u5357\u5411\u5317", "aa": "2",  "Longitude": 116.374485, "Latitude": 39.882802}, {"name": "\u623f\u5c71\u533a \u51ef\u65cb\u5927\u8857\u4e0e\u826f\u56ed\u4e8c\u8def\u8def\u53e3 \u200b\u4e1c\u5411\u897f", "aa": "2",  "Longitude": 116.128851, "Latitude": 39.712102}, {"name": "\u671d\u9633\u533a \u4e09\u73af\u5b89\u534e\u6865\u897f\u8f85\u8def \u4e1c\u5411\u897f", "aa": "2",  "Longitude": 116.38887, "Latitude": 39.968573}, {"name": "\u200b\u4e30\u53f0\u533a \u5927\u74e6\u7a91\u4e2d\u8def\u4e0e\u5927\u74e6\u7a91\u897f\u4e09\u8857\u4ea4\u53e3 \u5357\u5411\u5317\u200b", "aa": "2",  "Longitude": 116.23817, "Latitude": 39.861229}, {"name": "\u5f00\u53d1\u533a \u6587\u5316\u56ed\u897f\u8def\u4e0e\u5929\u534e\u4e1c\u8def\u4ea4\u53e3 \u4e1c\u5411\u897f", "aa": "2",  "Longitude": 116.492934, "Latitude": 39.807477}, {"name": "\u5f00\u53d1\u533a \u8363\u534e\u4e1c\u4e09\u8def\u4e0e\u5b8f\u8fbe\u4e2d\u8def\u4ea4\u53e3\uff08\u65b9\u5411\u5f85\u786e\u8ba4\uff09\u200b", "aa": "2",  "Longitude": 116.521446, "Latitude": 39.783671}, {"name": "\u987a\u4e49\u533a \u901a\u987a\u8def\u4e0e\u5f20\u8f9b\u6751\u897f\u8857\u4ea4\u53e3\u5357 \u5357\u5411\u5317\u200b\u3010\u516d\u73af\u5916\u3011", "aa": "6",  "Longitude": 116.677734, "Latitude": 40.017431}, {"name": "\u4e1c\u57ce\u533a \u5317\u4eac\u7ad9\u8857\u5317\u53e3 \u5317\u5411\u5357\u200b", "aa": "2",  "Longitude": 116.42698, "Latitude": 39.90802}, {"name": "\u660c\u5e73\u533a \u56de\u5357\u5317\u8def\u4e0e\u6587\u534e\u8def\u8def\u53e3 \u4e1c\u5411\u897f", "aa": "2",  "Longitude": 116.344241, "Latitude": 40.089431}, {"name": "\u660c\u5e73\u533a \u56de\u5357\u5317\u8def\u6587\u534e\u8def\u8def\u53e3 \u5317\u5411\u5357", "aa": "2",  "Longitude": 116.343348, "Latitude": 40.089704}, {"name": "\u4e30\u53f0\u533a \u4e07\u82b3\u897f\u8857\u4e0e\u6865\u5b89\u8def\u4ea4\u53e3 \u5317\u5411\u5357\u200b", "aa": "2",  "Longitude": 116.310031, "Latitude": 39.848139}, {"name": "\u660c\u5e73\u533a \u56de\u5357\u5317\u8def\u4e0e\u79d1\u661f\u897f\u8def\u8def\u53e3 \u5357\u5411\u5317", "aa": "2",  "Longitude": 116.357276, "Latitude": 40.089412}, {"name": "\u77f3\u666f\u5c71\u533a \u9686\u6069\u5bfa\u8def\u4e0e\u79c0\u5e9c\u8def\u4ea4\u53e3 \u5317\u5411\u5357", "aa": "2",  "Longitude": 116.125351, "Latitude": 39.963584}, {"name": "\u671d\u9633\u533a \u534e\u8d38\u4e2d\u8857\u4e1c\u4eba\u884c\u8fc7\u8857\u6a2a\u9053\u897f\u4fa7 \u897f\u5411\u4e1c\u200b", "aa": "2",  "Longitude": 116.480657, "Latitude": 39.911018}, {"name": "\u671d\u9633\u533a \u534e\u8d38\u5e7f\u573a\u8def\u4e0e\u534e\u8d38\u4e1c\u8def\u4ea4\u53e3\u5317\u4fa7 \u5317\u5411\u5357", "aa": "2",  "Longitude": 116.482532, "Latitude": 39.909833}, {"name": "\u4e1c\u57ce\u533a \u5de6\u5b89\u95e8\u5185\u5927\u8857\u53e3\u897f \u897f\u5411\u4e1c\u200b", "aa": "2",  "Longitude": 116.43908, "Latitude": 39.872346}, {"name": "\u897f\u57ce\u533a \u897f\u4ec0\u5e93\u5927\u8857\u5317\u53e3\u5357 \u5357\u5411\u5317\u200b", "aa": "2",  "Longitude": 116.380129, "Latitude": 39.932591}, {"name": "\u897f\u57ce\u533a \u9676\u7136\u4ead\u8def\u897f\u53e3\u5357 \u5357\u5411\u5317 \u8f85\u8def\u200b", "aa": "2",  "Longitude": 116.374612, "Latitude": 39.877556}, {"name": "\u4e1c\u57ce\u533a \u671d\u9633\u95e8\u5317\u5c0f\u8857\u4e0e\u4e1c\u56db\u4e03\u6761\u4ea4\u53e3\u5357 \u5357\u5411\u5317\u200b", "aa": "2",  "Longitude": 116.425823, "Latitude": 39.9313}, {"name": "\u6d77\u6dc0\u533a \u84dd\u975b\u5382\u5357\u8def\u6148\u5bff\u5bfa\u6865\u5317 \u5357\u5411\u5317\u200b", "aa": "2",  "Longitude": 116.297244, "Latitude": 39.932612}, {"name": "\u6d77\u6dc0\u533a \u84dd\u975b\u5382\u5357\u8def\u5f70\u5316\u8def\u4e1c\u53e3\u5357 \u5317\u5411\u5357", "aa": "2",  "Longitude": 116.295422, "Latitude": 39.942161}, {"name": "\u660c\u5e73\u533a \u56de\u5357\u5317\u8def\u4e0e\u6587\u534e\u8def\u8def\u53e3 \u5357\u5411\u5317", "aa": "2",  "Longitude": 116.343553, "Latitude": 40.089047}, {"name": "\u5e73\u8c37\u533a \u9646\u6e2f\u5317\u4e09\u8857\u4e0e\u9646\u6e2f\u4e1c\u4e8c\u8def\u4ea4\u53e3\u5317 \u5317\u5411\u5357\u3010\u516d\u73af\u5916\u3011", "aa": "6",  "Longitude": 117.027614, "Latitude": 40.091805}, {"name": "\u623f\u5c71\u533a \u4eac\u5468\u8def\u4e0e\u826f\u5768\u8def\u4ea4\u53e3 \u897f\u5411\u4e1c\u200b", "aa": "2",  "Longitude": 116.136422, "Latitude": 39.739558}, {"name": "\u5ef6\u5e86\u533a \u660c\u8d64\u8def\u4e0e\u9999\u5218\u8def\u4ea4\u53e3\u5357 \u5357\u5411\u5317\u3010\u516d\u73af\u5916\u3011\u200b", "aa": "6",  "Longitude": 116.147367, "Latitude": 40.570671}, {"name": "\u5ef6\u5e86\u533a \u7164\u6c14\u7ad9\u8def\u53e3\u897f \u897f\u5411\u4e1c\u3010\u516d\u73af\u5916\u3011\u200b", "aa": "6",  "Longitude": 116.002705, "Latitude": 40.449138}, {"name": "\u4e1c\u57ce\u533a \u91d1\u9c7c\u80e1\u540c\u8def\u5357\u4fa7 \u897f\u5411\u4e1c", "aa": "2",  "Longitude": 116.417413, "Latitude": 39.915554}, {"name": "\u5f00\u53d1\u533a \u5174\u6d77\u4e8c\u8857\u4e0e\u535a\u5174\u8def\u4ea4\u53e3 \u5317\u5411\u5357\u200b", "aa": "2",  "Longitude": 116.503518, "Latitude": 39.744786}, {"name": "\u901a\u5dde\u533a \u901a\u6000\u8def\u4e0e\u6f5e\u6e90\u5317\u8857\u4ea4\u53e3 \u5317\u5411\u5357\u200b", "aa": "2",  "Longitude": 116.726277, "Latitude": 39.956608}, {"name": "\u77f3\u666f\u5c71\u533a \u52a8\u529b\u4e1c\u8857\u4e0e\u4e94\u4e00\u5267\u573a\u5357\u8def\u4ea4\u53e3\uff08\u4e94\u4e00\u5267\u573a\u5357\u8def\u53e3\u81f3\u4e94\u4e00\u5267\u573a\u8def\u53e3\u6bb525\u7c73\uff09 \u5317\u5411\u5357\u200b", "aa": "2",  "Longitude": 116.15486, "Latitude": 39.916204}, {"name": "\u660c\u5e73\u533a \u5b9a\u6cd7\u8def\u4e0e\u60e0\u6cfd\u4e1c\u8def\u76f8\u4ea4\u8def\u53e3\u4e1c \u4e1c\u5411\u897f", "aa": "2",  "Longitude": 116.407804, "Latitude": 40.116091}, {"name": "\u987a\u4e49\u533a \u987a\u6c99\u8def\u4e0e\u5317\u9ad8\u8def\u4ea4\u53e3\u4e1c \u4e1c\u5411\u897f\u3010\u516d\u73af\u5916\u3011", "aa": "6",  "Longitude": 116.502125, "Latitude": 40.169669}, {"name": "\u897f\u57ce\u533a \u624b\u5e15\u53e3\u5317\u8857\u5357\u53e3\u897f \u897f\u5411\u4e1c", "aa": "2",  "Longitude": 116.342189, "Latitude": 39.889695}, {"name": "\u671d\u9633\u533a \u4eac\u627f\u9ad8\u901f\u671b\u548c\u6865\u5357\u5929\u6865 \u5357\u5411\u5317 \u8f85\u8def\u200b", "aa": "2",  "Longitude": 116.438277, "Latitude": 39.980232}, {"name": "\u4e30\u53f0\u533a \u91d1\u6865\u897f\u8857\u4e0e\u4e30\u5f69\u5357\u8def\u4e01\u5b57\u53e3\u897f \u897f\u5411\u4e1c\u200b", "aa": "2",  "Longitude": 116.417886, "Latitude": 39.836578}, {"name": "\u660c\u5e73\u533a \u4eac\u85cf\u9ad8\u901f34.13\u516c\u91cc \u8fdb\u51fa\u4eac\u53cc\u5411", "aa": "6",  "Longitude": 116.191861, "Latitude": 40.226032}, {"name": "\u901a\u5dde\u533a \u5c0f\u8f66\u8def\u671b\u91d1\u8def\u53e3\u4e1c \u4e1c\u5411\u897f", "aa": "2",  "Longitude": 116.86614, "Latitude": 39.808484}, {"name": "\u4e30\u53f0\u533a G4\u8f85\u8def\u51fa\u4eac\u5730\u94c1\u90ed\u5e84\u5b50\u516c\u4ea4\u7ad9\u897f\u4fa720\u7c73 \u4e1c\u5411\u897f", "aa": "2",  "Longitude": 116.251621, "Latitude": 39.863544},